{"type": "FeatureCollection", "headerFile": {"software": "(aixmParser v2.26.4) ", "created": "2021-06-25T14:08:02.606564", "content": "aerodromes", "numberOfAreas": 854, "srcFiles": {"1": {"srcAixmFile": "../AIXM4.5_all_FR_OM_2021-06-17.xml", "srcAixmOrigin": "Sia-France", "srcAixmVersion": "4.5", "srcAixmCreated": "2021-05-06T14:48:09.497+02:00", "srcAixmEffective": "2021-06-17T00:00:00.000+02:00"}}}, "features": [{"type": "Feature", "properties": {"zoneType": "Aerodrome / Heliport", "organisationAuthority": "GRANDE BRETAGNE", "codeType": "AD", "name": "JERSEY", "codeId": "EGJJ", "codeIcao": "EGJJ", "elevation": "277", "verticalUnit": "FT"}, "geometry": {"type": "Point", "coordinates": [-2.195278, 49.207778]}}, {"type": "Feature", "properties": {"zoneType": "Aerodrome / Heliport", "organisationAuthority": "LUXEMBOURG", "codeType": "AD", "name": "LUXEMBOURG", "codeId": "ELLX", "codeIcao": "ELLX", "elevation": "1234", "verticalUnit": "FT"}, "geometry": {"type": "Point", "coordinates": [6.204444, 49.623333]}}, {"type": "Feature", "properties": {"zoneType": "Aerodrome / Heliport", "organisationAuthority": "AUTRES", "codeType": "AD", "name": "TOUL ROSIERES", "codeId": "ZZSL", "elevation": "935", "verticalUnit": "FT"}, "geometry": {"type": "Point", "coordinates": [5.978056, 48.786111]}}, {"type": "Feature", "properties": {"zoneType": "Aerodrome / Heliport", "organisationAuthority": "SUISSE", "codeType": "AD", "name": "GENEVE", "codeId": "LSGG", "codeIcao": "LSGG", "elevation": "1411", "verticalUnit": "FT"}, "geometry": {"type": "Point", "coordinates": [6.109519, 46.23845]}}, {"type": "Feature", "properties": {"zoneType": "Aerodrome / Heliport", "organisationAuthority": "NOUVELLE CALEDONIE", "codeType": "AD", "name": "ILE DES PINS MOUE", "codeId": "NWWE", "codeIcao": "NWWE", "elevation": "317", "verticalUnit": "FT", "description": "Centre RWY", "descriptionSite": "8.3 km N Kuto", "nameAdmin": "PROVINCE SUD - DIRECTION DU FONCIER ET DE L'AMENAGEMENT"}, "geometry": {"type": "Point", "coordinates": [167.455278, -22.588611]}}, {"type": "Feature", "properties": {"zoneType": "Aerodrome / Heliport", "organisationAuthority": "FRANCE", "codeType": "AD", "name": "PUIVERT", "codeId": "LFNW", "codeIcao": "LFNW", "elevation": "1610", "verticalUnit": "FT"}, "geometry": {"type": "Point", "coordinates": [2.054722, 42.910278]}}, {"type": "Feature", "properties": {"zoneType": "Aerodrome / Heliport", "organisationAuthority": "FRANCE", "codeType": "AD", "name": "SAINT MARTIN DE LONDRES", "codeId": "LFNL", "codeIcao": "LFNL", "elevation": "602", "verticalUnit": "FT"}, "geometry": {"type": "Point", "coordinates": [3.781667, 43.800278]}}, {"type": "Feature", "properties": {"zoneType": "Aerodrome / Heliport", "organisationAuthority": "FRANCE", "codeType": "AD", "name": "SALON EYGUIERES", "codeId": "LFNE", "codeIcao": "LFNE", "elevation": "247", "verticalUnit": "FT", "cityServing": "SALON-DE-PROVENCE"}, "geometry": {"type": "Point", "coordinates": [5.012778, 43.6575]}}, {"type": "Feature", "properties": {"zoneType": "Aerodrome / Heliport", "organisationAuthority": "FRANCE", "codeType": "AD", "name": "SERRES LA BATIE MONTSALEON", "codeId": "LFTM", "codeIcao": "LFTM", "elevation": "2328", "verticalUnit": "FT"}, "geometry": {"type": "Point", "coordinates": [5.727222, 44.457222]}}, {"type": "Feature", "properties": {"zoneType": "Aerodrome / Heliport", "organisationAuthority": "FRANCE", "codeType": "AD", "name": "SISTERON VAUMEILH", "codeId": "LFNS", "codeIcao": "LFNS", "elevation": "1778", "verticalUnit": "FT"}, "geometry": {"type": "Point", "coordinates": [5.929167, 44.286667]}}, {"type": "Feature", "properties": {"zoneType": "Aerodrome / Heliport", "organisationAuthority": "FRANCE", "codeType": "AD", "name": "UZES", "codeId": "LFNU", "codeIcao": "LFNU", "elevation": "884", "verticalUnit": "FT"}, "geometry": {"type": "Point", "coordinates": [4.393833, 44.083472]}}, {"type": "Feature", "properties": {"zoneType": "Aerodrome / Heliport", "organisationAuthority": "FRANCE", "codeType": "AD", "name": "VALREAS VISAN", "codeId": "LFNV", "codeIcao": "LFNV", "elevation": "472", "verticalUnit": "FT", "cityServing": "VALREAS, VISAN"}, "geometry": {"type": "Point", "coordinates": [4.906944, 44.335833]}}, {"type": "Feature", "properties": {"zoneType": "Aerodrome / Heliport", "organisationAuthority": "FRANCE", "codeType": "AD", "name": "VINON", "codeId": "LFNF", "codeIcao": "LFNF", "elevation": "903", "verticalUnit": "FT", "cityServing": "VINON"}, "geometry": {"type": "Point", "coordinates": [5.783056, 43.736389]}}, {"type": "Feature", "properties": {"zoneType": "Aerodrome / Heliport", "organisationAuthority": "FRANCE", "codeType": "AD", "name": "BARCELONNETTE SAINT PONS", "codeId": "LFMR", "codeIcao": "LFMR", "codeIata": "BAE", "elevation": "3714", "verticalUnit": "FT", "cityServing": "BARCELONNETTE"}, "geometry": {"type": "Point", "coordinates": [6.609167, 44.387222]}}, {"type": "Feature", "properties": {"zoneType": "Aerodrome / Heliport", "organisationAuthority": "FRANCE", "codeType": "AD", "name": "LA GRAND'COMBE", "codeId": "LFTN", "codeIcao": "LFTN", "elevation": "1623", "verticalUnit": "FT"}, "geometry": {"type": "Point", "coordinates": [4.011111, 44.243056]}}, {"type": "Feature", "properties": {"zoneType": "Aerodrome / Heliport", "organisationAuthority": "FRANCE", "codeType": "AD", "name": "AVIGNON PUJAUT", "codeId": "LFNT", "codeIcao": "LFNT", "elevation": "146", "verticalUnit": "FT"}, "geometry": {"type": "Point", "coordinates": [4.754444, 43.996111]}}, {"type": "Feature", "properties": {"zoneType": "Aerodrome / Heliport", "organisationAuthority": "FRANCE", "codeType": "AD", "name": "NIMES COURBESSAC", "codeId": "LFME", "codeIcao": "LFME", "elevation": "197", "verticalUnit": "FT", "cityServing": "NIMES"}, "geometry": {"type": "Point", "coordinates": [4.414444, 43.853056]}}, {"type": "Feature", "properties": {"zoneType": "Aerodrome / Heliport", "organisationAuthority": "FRANCE", "codeType": "AD", "name": "ALES CEVENNES", "codeId": "LFMS", "codeIcao": "LFMS", "codeIata": "XAS", "elevation": "668", "verticalUnit": "FT", "cityServing": "ALES"}, "geometry": {"type": "Point", "coordinates": [4.142919, 44.072733]}}, {"type": "Feature", "properties": {"zoneType": "Aerodrome / Heliport", "organisationAuthority": "FRANCE", "codeType": "AD", "name": "ASPRES SUR BUECH", "codeId": "LFNJ", "codeIcao": "LFNJ", "elevation": "2727", "verticalUnit": "FT"}, "geometry": {"type": "Point", "coordinates": [5.736111, 44.517778]}}, {"type": "Feature", "properties": {"zoneType": "Aerodrome / Heliport", "organisationAuthority": "FRANCE", "codeType": "AD", "name": "NARBONNE", "codeId": "LFNN", "codeIcao": "LFNN", "elevation": "10", "verticalUnit": "FT", "descriptionSite": "2 km Est de Narbonne.\\\\2 km Est of Narbonne."}, "geometry": {"type": "Point", "coordinates": [3.051667, 43.194167]}}, {"type": "Feature", "properties": {"zoneType": "Aerodrome / Heliport", "organisationAuthority": "FRANCE", "codeType": "AD", "name": "FLORAC SAINTE ENIMIE", "codeId": "LFNO", "codeIcao": "LFNO", "elevation": "3055", "verticalUnit": "FT"}, "geometry": {"type": "Point", "coordinates": [3.465556, 44.285556]}}, {"type": "Feature", "properties": {"zoneType": "Aerodrome / Heliport", "organisationAuthority": "FRANCE", "codeType": "AD", "name": "LA LLAGONNE LA QUILLANE", "codeId": "LFNQ", "codeIcao": "LFNQ", "codeIata": "QZE", "elevation": "5612", "verticalUnit": "FT"}, "geometry": {"type": "Point", "coordinates": [2.120022, 42.543461]}}, {"type": "Feature", "properties": {"zoneType": "Aerodrome / Heliport", "organisationAuthority": "FRANCE", "codeType": "AD", "name": "BEDARIEUX LA TOUR SUR ORB", "codeId": "LFNX", "codeIcao": "LFNX", "elevation": "1247", "verticalUnit": "FT"}, "geometry": {"type": "Point", "coordinates": [3.144722, 43.639722]}}, {"type": "Feature", "properties": {"zoneType": "Aerodrome / Heliport", "organisationAuthority": "FRANCE", "codeType": "AD", "name": "BERRE LA FARE", "codeId": "LFNR", "codeIcao": "LFNR", "elevation": "108", "verticalUnit": "FT"}, "geometry": {"type": "Point", "coordinates": [5.1775, 43.536667]}}, {"type": "Feature", "properties": {"zoneType": "Aerodrome / Heliport", "organisationAuthority": "FRANCE", "codeType": "AD", "name": "LE MAZET DE ROMANIN", "codeId": "LFNZ", "codeIcao": "LFNZ", "elevation": "395", "verticalUnit": "FT"}, "geometry": {"type": "Point", "coordinates": [4.894444, 43.770833]}}, {"type": "Feature", "properties": {"zoneType": "Aerodrome / Heliport", "organisationAuthority": "FRANCE", "codeType": "AD", "name": "CARPENTRAS", "codeId": "LFNH", "codeIcao": "LFNH", "elevation": "388", "verticalUnit": "FT", "cityServing": "CARPENTRAS"}, "geometry": {"type": "Point", "coordinates": [5.09, 44.0225]}}, {"type": "Feature", "properties": {"zoneType": "Aerodrome / Heliport", "organisationAuthority": "FRANCE", "codeType": "AD", "name": "CHATEAU ARNOUX SAINT AUBAN", "codeId": "LFMX", "codeIcao": "LFMX", "elevation": "1507", "verticalUnit": "FT"}, "geometry": {"type": "Point", "coordinates": [5.990833, 44.058611]}}, {"type": "Feature", "properties": {"zoneType": "Aerodrome / Heliport", "organisationAuthority": "FRANCE", "codeType": "AD", "name": "MARIGNANE BERRE", "codeId": "LFTB", "codeIcao": "LFTB", "elevation": "0", "verticalUnit": "FT", "nameAdmin": "DSAC-CE"}, "geometry": {"type": "Point", "coordinates": [5.216667, 43.45]}}, {"type": "Feature", "properties": {"zoneType": "Aerodrome / Heliport", "organisationAuthority": "FRANCE", "codeType": "AD", "name": "MENDE BRENOUX", "codeId": "LFNB", "codeIcao": "LFNB", "codeIata": "MEN", "elevation": "3362", "verticalUnit": "FT", "descriptionSite": "3 km SE Mende", "cityServing": "MENDE", "nameAdmin": "COMMUNAUTE DE COMMUNES COEUR DE LOZERE"}, "geometry": {"type": "Point", "coordinates": [3.527633, 44.504081]}}, {"type": "Feature", "properties": {"zoneType": "Aerodrome / Heliport", "organisationAuthority": "FRANCE", "codeType": "AD", "name": "MILLAU LARZAC", "codeId": "LFCM", "codeIcao": "LFCM", "elevation": "2606", "verticalUnit": "FT", "cityServing": "MILLAU"}, "geometry": {"type": "Point", "coordinates": [3.183303, 43.989058]}}, {"type": "Feature", "properties": {"zoneType": "Aerodrome / Heliport", "organisationAuthority": "FRANCE", "codeType": "AD", "name": "MONT DAUPHIN SAINT CREPIN", "codeId": "LFNC", "codeIcao": "LFNC", "codeIata": "SCP", "elevation": "2963", "verticalUnit": "FT", "cityServing": "MONT-DAUPHIN"}, "geometry": {"type": "Point", "coordinates": [6.599167, 44.700556]}}, {"type": "Feature", "properties": {"zoneType": "Aerodrome / Heliport", "organisationAuthority": "POLYNESIE FRANCAISE", "codeType": "AD", "name": "FAAITE", "codeId": "NTKF", "codeIcao": "NTKF", "elevation": "12", "verticalUnit": "FT", "description": "Intersection RWY et TWY", "descriptionSite": "2,5 km NE Hitianau", "nameAdmin": "DAC POLYNESIE FRANCAISE"}, "geometry": {"type": "Point", "coordinates": [-145.332778, -16.686667]}}, {"type": "Feature", "properties": {"zoneType": "Aerodrome / Heliport", "organisationAuthority": "FRANCE", "codeType": "AD", "name": "EPINAL MIRECOURT", "codeId": "LFSG", "codeIcao": "LFSG", "codeIata": "EPL", "elevation": "1084", "verticalUnit": "FT", "descriptionSite": "31 km NW Epinal", "cityServing": "EPINAL", "nameAdmin": "SOCIETE D'EXPLOITATION DE L'AEROPORT D'EPINAL MIRECOURT"}, "geometry": {"type": "Point", "coordinates": [6.066742, 48.325006]}}, {"type": "Feature", "properties": {"zoneType": "Aerodrome / Heliport", "organisationAuthority": "GUYANE FRANCAISE", "codeType": "AD", "name": "REGINA", "codeId": "SOOR", "codeIcao": "SOOR", "elevation": "14", "verticalUnit": "FT", "descriptionSite": "1 km N REGINA", "nameAdmin": "COLLECTIVITE TERRITORIALE DE GUYANE"}, "geometry": {"type": "Point", "coordinates": [-52.131667, 4.314722]}}, {"type": "Feature", "properties": {"zoneType": "Aerodrome / Heliport", "organisationAuthority": "FRANCE", "codeType": "AD", "name": "PUIMOISSON", "codeId": "LFTP", "codeIcao": "LFTP", "elevation": "2469", "verticalUnit": "FT"}, "geometry": {"type": "Point", "coordinates": [6.162778, 43.868889]}}, {"type": "Feature", "properties": {"zoneType": "Aerodrome / Heliport", "organisationAuthority": "FRANCE", "codeType": "AD", "name": "LYON BRINDAS", "codeId": "LFKL", "codeIcao": "LFKL", "elevation": "1040", "verticalUnit": "FT"}, "geometry": {"type": "Point", "coordinates": [4.69665, 45.71065]}}, {"type": "Feature", "properties": {"zoneType": "Aerodrome / Heliport", "organisationAuthority": "GUYANE FRANCAISE", "codeType": "AD", "name": "SAINT LAURENT DU MARONI", "codeId": "SOOM", "codeIcao": "SOOM", "elevation": "20", "verticalUnit": "FT", "description": "Intersection RWY et TWY\\\\RWY and TWY intersection", "descriptionSite": "1.4 km SSW SAINT LAURENT DU MARONI", "nameAdmin": "COLLECTIVITE TERRITORIALE DE GUYANE"}, "geometry": {"type": "Point", "coordinates": [-54.033611, 5.485]}}, {"type": "Feature", "properties": {"zoneType": "Aerodrome / Heliport", "organisationAuthority": "FRANCE", "codeType": "AD", "name": "CASTELNAUDARY VILLENEUVE", "codeId": "LFMW", "codeIcao": "LFMW", "elevation": "553", "verticalUnit": "FT", "cityServing": "CASTELNAUDARY"}, "geometry": {"type": "Point", "coordinates": [1.92, 43.311111]}}, {"type": "Feature", "properties": {"zoneType": "Aerodrome / Heliport", "organisationAuthority": "GUYANE FRANCAISE", "codeType": "AD", "name": "SAINT GEORGES DE L'OYAPOCK", "codeId": "SOOG", "codeIcao": "SOOG", "elevation": "29", "verticalUnit": "FT", "description": "Intersection RWY et TWY\\\\RWY and TWY intersection", "descriptionSite": "600 m NW SAINT GEORGES", "nameAdmin": "COLLECTIVITE TERRITORIALE DE GUYANE"}, "geometry": {"type": "Point", "coordinates": [-51.805556, 3.893333]}}, {"type": "Feature", "properties": {"zoneType": "Aerodrome / Heliport", "organisationAuthority": "ANTILLES FRANCAISES", "codeType": "AD", "name": "LES SAINTES TERRE DE HAUT", "codeId": "TFFS", "codeIcao": "TFFS", "elevation": "44", "verticalUnit": "FT", "descriptionSite": "SE TERRE DE HAUT", "nameAdmin": "CONSEIL DEPARTEMENTAL DE LA GUADELOUPE"}, "geometry": {"type": "Point", "coordinates": [-61.580556, 15.864444]}}, {"type": "Feature", "properties": {"zoneType": "Aerodrome / Heliport", "organisationAuthority": "GUYANE FRANCAISE", "codeType": "AD", "name": "MARIPASOULA", "codeId": "SOOA", "codeIcao": "SOOA", "elevation": "379", "verticalUnit": "FT", "description": "Intersection RWY et TWY\\\\RWY and TWY intersection", "descriptionSite": "3 km N MARIPASOULA", "nameAdmin": "COLLECTIVITE TERRITORIALE DE GUYANE"}, "geometry": {"type": "Point", "coordinates": [-54.037222, 3.6575]}}, {"type": "Feature", "properties": {"zoneType": "Aerodrome / Heliport", "organisationAuthority": "ANTILLES FRANCAISES", "codeType": "AD", "name": "SAINT BARTHELEMY", "codeId": "TFFJ", "codeIcao": "TFFJ", "elevation": "48", "verticalUnit": "FT", "descriptionSite": "800 m NE de GUSTAVIA\\\\800 m NE of GUSTAVIA city", "nameAdmin": "COLLECTIVITE DE SAINT BARTHELEMY"}, "geometry": {"type": "Point", "coordinates": [-62.843889, 17.904444]}}, {"type": "Feature", "properties": {"zoneType": "Aerodrome / Heliport", "organisationAuthority": "ANTILLES FRANCAISES", "codeType": "AD", "name": "SAINT FRANCOIS", "codeId": "TFFC", "codeIcao": "TFFC", "elevation": "10", "verticalUnit": "FT", "descriptionSite": "1.2 km NE SAINT FRANCOIS", "nameAdmin": "MAIRIE DE SAINT-FRANCOIS"}, "geometry": {"type": "Point", "coordinates": [-61.2625, 16.257778]}}, {"type": "Feature", "properties": {"zoneType": "Aerodrome / Heliport", "organisationAuthority": "ANTILLES FRANCAISES", "codeType": "AD", "name": "POINTE A PITRE LE RAIZET", "codeId": "TFFR", "codeIcao": "TFFR", "elevation": "35", "verticalUnit": "FT", "description": "Intersection RWY et TWY B\\\\RWY and TWY B intersection", "descriptionSite": "2.4 km NNE de POINTE A PITRE\\\\2.4 km NNE from POINTE A PITRE", "cityServing": "POINTE A PITRE (GUADELOUPE)", "nameAdmin": "SAGPC"}, "geometry": {"type": "Point", "coordinates": [-61.525833, 16.264167]}}, {"type": "Feature", "properties": {"zoneType": "Aerodrome / Heliport", "organisationAuthority": "GUYANE FRANCAISE", "codeType": "AD", "name": "GRAND SANTI", "codeId": "SOGS", "codeIcao": "SOGS", "elevation": "187", "verticalUnit": "FT", "description": "Intersection RWY et TWY.\\\\RWY and TWY intersection.", "descriptionSite": "1 km NE GRAND SANTI", "nameAdmin": "COLLECTIVITE TERRITORIALE DE GUYANE"}, "geometry": {"type": "Point", "coordinates": [-54.380556, 4.283889]}}, {"type": "Feature", "properties": {"zoneType": "Aerodrome / Heliport", "organisationAuthority": "FRANCE", "codeType": "AD", "name": "LANDIVISIAU", "codeId": "LFRJ", "codeIcao": "LFRJ", "codeIata": "LDV", "elevation": "348", "verticalUnit": "FT", "description": "Centre RWY 07/25\\\\RWY centre 07/25", "descriptionSite": "5 km NW LANDIVISIAU (29 - FINISTERE NORD)", "nameAdmin": "MINISTERE DES ARMEES\\\\MINISTRY OF DEFENCE"}, "geometry": {"type": "Point", "coordinates": [-4.151642, 48.530258]}}, {"type": "Feature", "properties": {"zoneType": "Aerodrome / Heliport", "organisationAuthority": "FRANCE", "codeType": "AD", "name": "MONTENDRE MARCILLAC", "codeId": "LFDC", "codeIcao": "LFDC", "elevation": "145", "verticalUnit": "FT", "cityServing": "MONTENDRE"}, "geometry": {"type": "Point", "coordinates": [-0.453333, 45.273611]}}, {"type": "Feature", "properties": {"zoneType": "Aerodrome / Heliport", "organisationAuthority": "ANTILLES FRANCAISES", "codeType": "AD", "name": "SAINT MARTIN GRAND'CASE", "codeId": "TFFG", "codeIcao": "TFFG", "elevation": "23", "verticalUnit": "FT", "descriptionSite": "Est de la ville de GRAND CASE\\\\East of GRAND CASE city", "nameAdmin": "EDEIS SAINT-MARTIN"}, "geometry": {"type": "Point", "coordinates": [-63.048889, 18.100556]}}, {"type": "Feature", "properties": {"zoneType": "Aerodrome / Heliport", "organisationAuthority": "FRANCE", "codeType": "AD", "name": "BRIVE SOUILLAC", "codeId": "LFSL", "codeIcao": "LFSL", "elevation": "1016", "verticalUnit": "FT", "description": "Intersection RWY et TWY Aviation Générale\\\\RWY and General Aviation TWY intersection", "descriptionSite": "13 km BRIVE (19- Corrèze)", "cityServing": "BRIVE", "nameAdmin": "REGIE PERSONNALISEE DE L'AEROPORT BRIVE-SOUILLAC"}, "geometry": {"type": "Point", "coordinates": [1.485667, 45.039639]}}, {"type": "Feature", "properties": {"zoneType": "Aerodrome / Heliport", "organisationAuthority": "GUYANE FRANCAISE", "codeType": "AD", "name": "SAUL", "codeId": "SOOS", "codeIcao": "SOOS", "elevation": "740", "verticalUnit": "FT", "descriptionSite": "1 km SE SAUL (973 - GUYANE)", "nameAdmin": "COLLECTIVITE TERRITORIALE DE GUYANE"}, "geometry": {"type": "Point", "coordinates": [-53.203611, 3.615]}}, {"type": "Feature", "properties": {"zoneType": "Aerodrome / Heliport", "organisationAuthority": "FRANCE", "codeType": "HP", "name": "BOURG EN BRESSE CENTRE HOSPITALIER", "codeId": "LFH463", "elevation": "814", "verticalUnit": "FT"}, "geometry": {"type": "Point", "coordinates": [5.209722, 46.224722]}}, {"type": "Feature", "properties": {"zoneType": "Aerodrome / Heliport", "organisationAuthority": "NOUVELLE CALEDONIE", "codeType": "AD", "name": "LIFOU OUANAHAM", "codeId": "NWWL", "codeIcao": "NWWL", "elevation": "94", "verticalUnit": "FT", "description": "Centre de la piste\\\\ RWY center", "descriptionSite": "9.3 km E Chépénéhé", "nameAdmin": "CAA: DAC NOUVELLE CALEDONIE"}, "geometry": {"type": "Point", "coordinates": [167.239167, -20.774444]}}, {"type": "Feature", "properties": {"zoneType": "Aerodrome / Heliport", "organisationAuthority": "NOUVELLE CALEDONIE", "codeType": "AD", "name": "TOUHO", "codeId": "NWWU", "codeIcao": "NWWU", "elevation": "10", "verticalUnit": "FT", "description": "Centre RWY", "descriptionSite": "2.5 km ESE Touho", "nameAdmin": "PROVINCE NORD DIRECTION DE L'AMENAGEMENT ET DU FONCIER"}, "geometry": {"type": "Point", "coordinates": [165.259444, -20.79]}}, {"type": "Feature", "properties": {"zoneType": "Aerodrome / Heliport", "organisationAuthority": "NOUVELLE CALEDONIE", "codeType": "AD", "name": "KONE", "codeId": "NWWD", "codeIcao": "NWWD", "elevation": "24", "verticalUnit": "FT", "description": "Sur la piste 09/27, à 525m du DTHR 09\\\\On RWY 09/27, 525 m away from DTHR 09", "descriptionSite": "2.6 km W Koné\\\\2.6 km W from Koné", "nameAdmin": "CAA: DAC NOUVELLE CALEDONIE"}, "geometry": {"type": "Point", "coordinates": [164.839444, -21.053611]}}, {"type": "Feature", "properties": {"zoneType": "Aerodrome / Heliport", "organisationAuthority": "NOUVELLE CALEDONIE", "codeType": "AD", "name": "ILE ART WAALA", "codeId": "NWWC", "codeIcao": "NWWC", "elevation": "305", "verticalUnit": "FT", "description": "Centre RWY", "descriptionSite": "1.9 km SE Waala", "nameAdmin": "PROVINCE NORD - DIRECTION AMENAGEMENT ET DU FONCIER"}, "geometry": {"type": "Point", "coordinates": [163.661111, -19.720556]}}, {"type": "Feature", "properties": {"zoneType": "Aerodrome / Heliport", "organisationAuthority": "FRANCE", "codeType": "AD", "name": "NEVERS FOURCHAMBAULT", "codeId": "LFQG", "codeIcao": "LFQG", "codeIata": "NVS", "elevation": "602", "verticalUnit": "FT", "description": "Intersection RWY et TWY B", "descriptionSite": "3 km W Nevers", "cityServing": "NEVERS", "nameAdmin": "SYNDICAT MIXTE DE L'AEROPORT DE NEVERS"}, "geometry": {"type": "Point", "coordinates": [3.110742, 47.003731]}}, {"type": "Feature", "properties": {"zoneType": "Aerodrome / Heliport", "organisationAuthority": "FRANCE", "codeType": "AD", "name": "DEAUVILLE NORMANDIE", "codeId": "LFRG", "codeIcao": "LFRG", "codeIata": "DOL", "elevation": "479", "verticalUnit": "FT", "description": "Intersection piste 12/30 et taxiway Bravo\\\\intersection of runway 12/30 and taxiway Bravo", "descriptionSite": "7 km Est de DEAUVILLE\\\\7 km East of DEAUVILLE", "cityServing": "DEAUVILLE", "nameAdmin": "CCI SEINE ESTUAIRE"}, "geometry": {"type": "Point", "coordinates": [0.159997, 49.363394]}}, {"type": "Feature", "properties": {"zoneType": "Aerodrome / Heliport", "organisationAuthority": "FRANCE", "codeType": "AD", "name": "SAINT NAZAIRE MONTOIR", "codeId": "LFRZ", "codeIcao": "LFRZ", "codeIata": "SNR", "elevation": "13", "verticalUnit": "FT", "description": "Intersection TWY Bravo et RWY\\\\TWY B and RWY intersection", "descriptionSite": "6,9 Km NE de la ville de St Nazaire\\\\6.9km NE St NAZAIRE", "cityServing": "SAINT NAZAIRE", "nameAdmin": "AEROPORT DU GRAND OUEST (AGO)"}, "geometry": {"type": "Point", "coordinates": [-2.156803, 47.31065]}}, {"type": "Feature", "properties": {"zoneType": "Aerodrome / Heliport", "organisationAuthority": "FRANCE", "codeType": "AD", "name": "GAP TALLARD", "codeId": "LFNA", "codeIcao": "LFNA", "codeIata": "GAT", "elevation": "1966", "verticalUnit": "FT", "cityServing": "GAP", "nameAdmin": "DEPARTEMENT DES HAUTES-ALPES"}, "geometry": {"type": "Point", "coordinates": [6.036667, 44.453889]}}, {"type": "Feature", "properties": {"zoneType": "Aerodrome / Heliport", "organisationAuthority": "FRANCE", "codeType": "AD", "name": "AIX LES MILLES", "codeId": "LFMA", "codeIcao": "LFMA", "elevation": "368", "verticalUnit": "FT", "descriptionSite": "6 km WSW Aix en Provence (13 - Bouches du Rhône)", "cityServing": "AIX", "nameAdmin": "EDEIS AEROPORT AIX"}, "geometry": {"type": "Point", "coordinates": [5.367222, 43.505278]}}, {"type": "Feature", "properties": {"zoneType": "Aerodrome / Heliport", "organisationAuthority": "FRANCE", "codeType": "AD", "name": "LE CASTELLET", "codeId": "LFMQ", "codeIcao": "LFMQ", "codeIata": "CTT", "elevation": "1391", "verticalUnit": "FT", "descriptionSite": "5 km N Le Castellet", "cityServing": "LE CASTELLET", "nameAdmin": "AIDC"}, "geometry": {"type": "Point", "coordinates": [5.786111, 43.252222]}}, {"type": "Feature", "properties": {"zoneType": "Aerodrome / Heliport", "organisationAuthority": "FRANCE", "codeType": "AD", "name": "SAINT YAN", "codeId": "LFLN", "codeIcao": "LFLN", "codeIata": "SYT", "elevation": "796", "verticalUnit": "FT", "descriptionSite": "1 km W Saint-Yan", "cityServing": "SAINT-YAN", "nameAdmin": "SYAB"}, "geometry": {"type": "Point", "coordinates": [4.021097, 46.406492]}}, {"type": "Feature", "properties": {"zoneType": "Aerodrome / Heliport", "organisationAuthority": "FRANCE", "codeType": "AD", "name": "LA ROCHE SUR YON LES AJONCS", "codeId": "LFRI", "codeIcao": "LFRI", "codeIata": "EDM", "elevation": "299", "verticalUnit": "FT", "description": "Intersection RWY et TWY B/D", "descriptionSite": "5 km NE La Roche sur Yon", "cityServing": "LA ROCHE SUR YON", "nameAdmin": "CCI DE LA VENDEE"}, "geometry": {"type": "Point", "coordinates": [-1.381758, 46.702383]}}, {"type": "Feature", "properties": {"zoneType": "Aerodrome / Heliport", "organisationAuthority": "POLYNESIE FRANCAISE", "codeType": "AD", "name": "NUKUTEPIPI", "codeId": "NTKU", "codeIcao": "NTKU", "elevation": "22", "verticalUnit": "FT", "description": "Mi piste\\\\RWY half", "descriptionSite": "200 m à l'Est du village\\\\200 m East of village", "nameAdmin": "SCI PARADISE ISLAND - ATOLL DE NUKUTEPIPI"}, "geometry": {"type": "Point", "coordinates": [-143.045647, -20.700317]}}, {"type": "Feature", "properties": {"zoneType": "Aerodrome / Heliport", "organisationAuthority": "FRANCE", "codeType": "AD", "name": "LEZIGNAN CORBIERES", "codeId": "LFMZ", "codeIcao": "LFMZ", "elevation": "204", "verticalUnit": "FT", "cityServing": "LEZIGNAN, NARBONNE"}, "geometry": {"type": "Point", "coordinates": [2.732778, 43.175]}}, {"type": "Feature", "properties": {"zoneType": "Aerodrome / Heliport", "organisationAuthority": "FRANCE", "codeType": "AD", "name": "COURCHEVEL", "codeId": "LFLJ", "codeIcao": "LFLJ", "codeIata": "CVF", "elevation": "6583", "verticalUnit": "FT", "descriptionSite": "(2 Km S Courchevel) ST BON-73"}, "geometry": {"type": "Point", "coordinates": [6.6325, 45.395833]}}, {"type": "Feature", "properties": {"zoneType": "Aerodrome / Heliport", "organisationAuthority": "FRANCE", "codeType": "AD", "name": "CHATEAUDUN", "codeId": "LFOC", "codeIcao": "LFOC", "elevation": "432", "verticalUnit": "FT", "description": "Croisée des pistes.\\\\Runway crossing.", "descriptionSite": "5 km ESE CHATEAUDUN (28 - EURE-ET-LOIR)\\\\", "cityServing": "CHATEAUDUN", "nameAdmin": "MINISTERE DES ARMEES (FAF)\\\\MINISTRY OF DEFENCE (FAF)", "remark": "Type of traffic: IFR/VFR internal traffic only Central approach Orléans Chateaudun"}, "geometry": {"type": "Point", "coordinates": [1.379442, 48.057875]}}, {"type": "Feature", "properties": {"zoneType": "Aerodrome / Heliport", "organisationAuthority": "FRANCE", "codeType": "AD", "name": "BAR LE DUC LES HAUTS DE CHEE", "codeId": "LFEU", "codeIcao": "LFEU", "codeIata": "XBD", "elevation": "899", "verticalUnit": "FT", "cityServing": "BAR LE DUC"}, "geometry": {"type": "Point", "coordinates": [5.184167, 48.867778]}}, {"type": "Feature", "properties": {"zoneType": "Aerodrome / Heliport", "organisationAuthority": "FRANCE", "codeType": "AD", "name": "LANVEOC POULMIC", "codeId": "LFRL", "codeIcao": "LFRL", "elevation": "287", "verticalUnit": "FT", "description": "Centre RWY 05/23", "descriptionSite": "0.7 NM SE LANVEOC (29 - FINISTERE)", "nameAdmin": "MINISTERE DES ARMEES (FNF)\\\\MINISTRY OF DEFENCE (FNF)"}, "geometry": {"type": "Point", "coordinates": [-4.443692, 48.282531]}}, {"type": "Feature", "properties": {"zoneType": "Aerodrome / Heliport", "organisationAuthority": "FRANCE", "codeType": "HP", "name": "VAL D'ISERE LA DAILLE", "codeId": "LFH218", "elevation": "5910", "verticalUnit": "FT"}, "geometry": {"type": "Point", "coordinates": [6.967736, 45.457228]}}, {"type": "Feature", "properties": {"zoneType": "Aerodrome / Heliport", "organisationAuthority": "FRANCE", "codeType": "AD", "name": "TARBES LOURDES PYRENEES", "codeId": "LFBT", "codeIcao": "LFBT", "codeIata": "LDE", "elevation": "1260", "verticalUnit": "FT", "description": "Intersection de l'axe de piste et de l'axe du TWY A.\\\\Intersection of RWY centerline and of TWY A centerline.", "descriptionSite": "4.8NM SSW de TARBES", "cityServing": "TARBES, LOURDES", "nameAdmin": "EATLP: EDEIS AEROPORT TARBES LOURDES PYRENEES."}, "geometry": {"type": "Point", "coordinates": [-0.002894, 43.18545]}}, {"type": "Feature", "properties": {"zoneType": "Aerodrome / Heliport", "organisationAuthority": "FRANCE", "codeType": "AD", "name": "QUIBERON", "codeId": "LFEQ", "codeIcao": "LFEQ", "elevation": "38", "verticalUnit": "FT", "cityServing": "QUIBERON"}, "geometry": {"type": "Point", "coordinates": [-3.101667, 47.481389]}}, {"type": "Feature", "properties": {"zoneType": "Aerodrome / Heliport", "organisationAuthority": "POLYNESIE FRANCAISE", "codeType": "AD", "name": "HUAHINE FARE", "codeId": "NTTH", "codeIcao": "NTTH", "elevation": "14", "verticalUnit": "FT", "description": "THR RWY 07", "descriptionSite": "4 km NE Fare", "nameAdmin": "DAC POLYNESIE FRANCAISE"}, "geometry": {"type": "Point", "coordinates": [-151.028611, -16.688333]}}, {"type": "Feature", "properties": {"zoneType": "Aerodrome / Heliport", "organisationAuthority": "FRANCE", "codeType": "AD", "name": "CALAIS MARCK", "codeId": "LFAC", "codeIcao": "LFAC", "codeIata": "CQF", "elevation": "12", "verticalUnit": "FT", "cityServing": "CALAIS"}, "geometry": {"type": "Point", "coordinates": [1.951433, 50.960933]}}, {"type": "Feature", "properties": {"zoneType": "Aerodrome / Heliport", "organisationAuthority": "ST PIERRE ET MIQUELON", "codeType": "AD", "name": "MIQUELON", "codeId": "LFVM", "codeIcao": "LFVM", "elevation": "10", "verticalUnit": "FT", "description": "Intersection RWY et TWY", "descriptionSite": "500 m ouest de MIQUELON\\\\500 m west from MIQUELON city", "cityServing": "MIQUELON", "nameAdmin": "COLLECTIVITE TERRITORIALE ET DTAM"}, "geometry": {"type": "Point", "coordinates": [-56.384444, 47.095833]}}, {"type": "Feature", "properties": {"zoneType": "Aerodrome / Heliport", "organisationAuthority": "FRANCE", "codeType": "HP", "name": "ARCS 2000", "codeId": "HACS", "elevation": "6780", "verticalUnit": "FT"}, "geometry": {"type": "Point", "coordinates": [6.831111, 45.575278]}}, {"type": "Feature", "properties": {"zoneType": "Aerodrome / Heliport", "organisationAuthority": "FRANCE", "codeType": "HP", "name": "SAINT JEAN DE MAURIENNE CENTRE HOSPITALIER", "codeId": "LFH21", "elevation": "1983", "verticalUnit": "FT"}, "geometry": {"type": "Point", "coordinates": [6.341667, 45.277778]}}, {"type": "Feature", "properties": {"zoneType": "Aerodrome / Heliport", "organisationAuthority": "FRANCE", "codeType": "HP", "name": "VERSAILLES CENTRE HOSPITALIER", "codeId": "LFH451", "elevation": "492", "verticalUnit": "FT"}, "geometry": {"type": "Point", "coordinates": [2.127778, 48.830833]}}, {"type": "Feature", "properties": {"zoneType": "Aerodrome / Heliport", "organisationAuthority": "FRANCE", "codeType": "HP", "name": "POISSY CENTRE HOSPITALIER.", "codeId": "LFH241", "elevation": "233", "verticalUnit": "FT"}, "geometry": {"type": "Point", "coordinates": [2.023333, 48.916944]}}, {"type": "Feature", "properties": {"zoneType": "Aerodrome / Heliport", "organisationAuthority": "GUYANE FRANCAISE", "codeType": "AD", "name": "CAYENNE FELIX EBOUE", "codeId": "SOCA", "codeIcao": "SOCA", "elevation": "26", "verticalUnit": "FT", "description": "Intersection axe RWY et TWY central C\\\\Centre line and central TWY C intersection", "descriptionSite": "13.5 km SSW de CAYENNE\\\\13.5 km SSW from CAYENNE city", "cityServing": "CAYENNE", "nameAdmin": "CCI GUYANE"}, "geometry": {"type": "Point", "coordinates": [-52.361944, 4.819722]}}, {"type": "Feature", "properties": {"zoneType": "Aerodrome / Heliport", "organisationAuthority": "POLYNESIE FRANCAISE", "codeType": "AD", "name": "HIVA OA ATUONA", "codeId": "NTMN", "codeIcao": "NTMN", "elevation": "1521", "verticalUnit": "FT", "description": "Intersection RWY et/and TWY", "descriptionSite": "4,5 km NE Atuona", "nameAdmin": "DAC POLYNESIE FRANCAISE"}, "geometry": {"type": "Point", "coordinates": [-139.011111, -9.768056]}}, {"type": "Feature", "properties": {"zoneType": "Aerodrome / Heliport", "organisationAuthority": "POLYNESIE FRANCAISE", "codeType": "AD", "name": "KATIU", "codeId": "NTKT", "codeIcao": "NTKT", "elevation": "12", "verticalUnit": "FT", "description": "Intersection RWY et TWY", "descriptionSite": "6 km du village", "nameAdmin": "DAC POLYNESIE FRANCAISE"}, "geometry": {"type": "Point", "coordinates": [-144.403056, -16.339444]}}, {"type": "Feature", "properties": {"zoneType": "Aerodrome / Heliport", "organisationAuthority": "POLYNESIE FRANCAISE", "codeType": "AD", "name": "KAUEHI", "codeId": "NTKA", "codeIcao": "NTKA", "elevation": "18", "verticalUnit": "FT", "description": "Intersection axes RWY 08/26 et TWY\\\\RWY 08/26 and TWY centerlines intersection", "descriptionSite": "6 km Tearavero", "nameAdmin": "DAC POLYNESIE FRANCAISE"}, "geometry": {"type": "Point", "coordinates": [-145.123889, -15.780833]}}, {"type": "Feature", "properties": {"zoneType": "Aerodrome / Heliport", "organisationAuthority": "REUNION", "codeType": "AD", "name": "SAINT PIERRE PIERREFONDS", "codeId": "FMEP", "codeIcao": "FMEP", "elevation": "60", "verticalUnit": "FT", "description": "Intersection axe RWY 15/33 et TWY C\\\\Intersection RWY 15/33 axis and TWY C", "descriptionSite": "5.5 km WNW SAINT PIERRE", "nameAdmin": "SYNDICAT MIXTE DE PIERREFONDS"}, "geometry": {"type": "Point", "coordinates": [55.425678, -21.321536]}}, {"type": "Feature", "properties": {"zoneType": "Aerodrome / Heliport", "organisationAuthority": "POLYNESIE FRANCAISE", "codeType": "AD", "name": "KAUKURA", "codeId": "NTGK", "codeIcao": "NTGK", "elevation": "16", "verticalUnit": "FT", "description": "Intersection axe RWY et axe TWY.", "descriptionSite": "1 km NW village Raitahiti", "nameAdmin": "DAC POLYNESIE FRANCAISE"}, "geometry": {"type": "Point", "coordinates": [-146.886944, -15.666944]}}, {"type": "Feature", "properties": {"zoneType": "Aerodrome / Heliport", "organisationAuthority": "FRANCE", "codeType": "HP", "name": "GRIMAUD", "codeId": "LFH103", "elevation": "17", "verticalUnit": "FT"}, "geometry": {"type": "Point", "coordinates": [6.551925, 43.267806]}}, {"type": "Feature", "properties": {"zoneType": "Aerodrome / Heliport", "organisationAuthority": "FRANCE", "codeType": "HP", "name": "LE PUY EN VELAY CENTRE HOSPITALIER", "codeId": "LFH280", "elevation": "2108", "verticalUnit": "FT"}, "geometry": {"type": "Point", "coordinates": [3.878056, 45.050556]}}, {"type": "Feature", "properties": {"zoneType": "Aerodrome / Heliport", "organisationAuthority": "FRANCE", "codeType": "AD", "name": "BASTIA PORETTA", "codeId": "LFKB", "codeIcao": "LFKB", "codeIata": "BIA", "elevation": "26", "verticalUnit": "FT", "description": "Intersection pistes et voie de circulation centrale\\\\ Centre TWY and RWY intersection", "descriptionSite": "16,5 km SSE de BASTIA", "cityServing": "BASTIA", "nameAdmin": "CCI DE BASTIA ET DE HAUTE CORSE"}, "geometry": {"type": "Point", "coordinates": [9.484847, 42.55]}}, {"type": "Feature", "properties": {"zoneType": "Aerodrome / Heliport", "organisationAuthority": "FRANCE", "codeType": "HP", "name": "LA ROCHE SUR YON CENTRE HOSPITALIER", "codeId": "LFH117", "elevation": "343", "verticalUnit": "FT"}, "geometry": {"type": "Point", "coordinates": [-1.412222, 46.668056]}}, {"type": "Feature", "properties": {"zoneType": "Aerodrome / Heliport", "organisationAuthority": "NOUVELLE CALEDONIE", "codeType": "HP", "name": "KONE CHN", "codeId": "NWH5", "elevation": "69", "verticalUnit": "FT"}, "geometry": {"type": "Point", "coordinates": [164.888333, -21.098611]}}, {"type": "Feature", "properties": {"zoneType": "Aerodrome / Heliport", "organisationAuthority": "FRANCE", "codeType": "HP", "name": "LIMOGES CENTRE HOSPITALIER", "codeId": "LFH124", "elevation": "899", "verticalUnit": "FT"}, "geometry": {"type": "Point", "coordinates": [1.237811, 45.813864]}}, {"type": "Feature", "properties": {"zoneType": "Aerodrome / Heliport", "organisationAuthority": "FRANCE", "codeType": "HP", "name": "VALENCE CENTRE HOSPITALIER", "codeId": "LFH221", "elevation": "486", "verticalUnit": "FT"}, "geometry": {"type": "Point", "coordinates": [4.9042, 44.914472]}}, {"type": "Feature", "properties": {"zoneType": "Aerodrome / Heliport", "organisationAuthority": "FRANCE", "codeType": "HP", "name": "LE HAVRE CENTRE HOSPITALIER", "codeId": "LFH326", "elevation": "40", "verticalUnit": "FT"}, "geometry": {"type": "Point", "coordinates": [0.184722, 49.524722]}}, {"type": "Feature", "properties": {"zoneType": "Aerodrome / Heliport", "organisationAuthority": "FRANCE", "codeType": "HP", "name": "PORTO-VECCHIO", "codeId": "LFH406", "elevation": "30", "verticalUnit": "FT"}, "geometry": {"type": "Point", "coordinates": [9.276944, 41.58]}}, {"type": "Feature", "properties": {"zoneType": "Aerodrome / Heliport", "organisationAuthority": "FRANCE", "codeType": "AD", "name": "RODEZ AVEYRON", "codeId": "LFCR", "codeIcao": "LFCR", "codeIata": "RDZ", "elevation": "1909", "verticalUnit": "FT", "description": "902 m aprés DTHR RWY31", "descriptionSite": "8 KM NW RODEZ", "cityServing": "RODEZ", "nameAdmin": "SAEML AIR 12"}, "geometry": {"type": "Point", "coordinates": [2.483314, 44.407489]}}, {"type": "Feature", "properties": {"zoneType": "Aerodrome / Heliport", "organisationAuthority": "FRANCE", "codeType": "AD", "name": "ROMORANTIN PRUNIERS", "codeId": "LFYR", "codeIcao": "LFYR", "elevation": "289", "verticalUnit": "FT", "cityServing": "ROMORANTIN"}, "geometry": {"type": "Point", "coordinates": [1.688889, 47.320833]}}, {"type": "Feature", "properties": {"zoneType": "Aerodrome / Heliport", "organisationAuthority": "FRANCE", "codeType": "HP", "name": "AUBENAS CENTRE HOSPITALIER", "codeId": "LFH18", "elevation": "785", "verticalUnit": "FT"}, "geometry": {"type": "Point", "coordinates": [4.397222, 44.613889]}}, {"type": "Feature", "properties": {"zoneType": "Aerodrome / Heliport", "organisationAuthority": "FRANCE", "codeType": "HP", "name": "CHATEAUROUX CENTRE HOSPITALIER", "codeId": "LFH252", "elevation": "558", "verticalUnit": "FT"}, "geometry": {"type": "Point", "coordinates": [1.6975, 46.799444]}}, {"type": "Feature", "properties": {"zoneType": "Aerodrome / Heliport", "organisationAuthority": "FRANCE", "codeType": "HP", "name": "SEMUR EN AUXOIS CENTRE HOSPITALIER", "codeId": "LFH361", "elevation": "957", "verticalUnit": "FT"}, "geometry": {"type": "Point", "coordinates": [4.344533, 47.495642]}}, {"type": "Feature", "properties": {"zoneType": "Aerodrome / Heliport", "organisationAuthority": "FRANCE", "codeType": "HP", "name": "AUBERIVE", "codeId": "LFH35", "elevation": "390", "verticalUnit": "FT"}, "geometry": {"type": "Point", "coordinates": [4.412222, 49.203953]}}, {"type": "Feature", "properties": {"zoneType": "Aerodrome / Heliport", "organisationAuthority": "FRANCE", "codeType": "AD", "name": "VILLEFRANCHE TARARE", "codeId": "LFHV", "codeIcao": "LFHV", "codeIata": "XVF", "elevation": "1076", "verticalUnit": "FT", "description": "Intersection axes RWY et TWY Sud\\\\RWY and South TWY axis intersection.", "descriptionSite": "10 km SW Villefranche sur Saône", "cityServing": "VILLEFRANCHE", "nameAdmin": "CCI DE VILLEFRANCHE ET DU BEAULOLAIS"}, "geometry": {"type": "Point", "coordinates": [4.634931, 45.919983]}}, {"type": "Feature", "properties": {"zoneType": "Aerodrome / Heliport", "organisationAuthority": "WALLIS ET FUTUNA", "codeType": "AD", "name": "FUTUNA POINTE VELE", "codeId": "NLWF", "codeIcao": "NLWF", "elevation": "16", "verticalUnit": "FT", "description": "Centre RWY 07/25", "descriptionSite": "10 km E Leava", "nameAdmin": "SERVICE DES TRAVAUX PUBLICS DE WALLIS ET FUTUNA"}, "geometry": {"type": "Point", "coordinates": [-178.066389, -14.311667]}}, {"type": "Feature", "properties": {"zoneType": "Aerodrome / Heliport", "organisationAuthority": "FRANCE", "codeType": "HP", "name": "METZ FRESCATY", "codeId": "LFH470", "elevation": "630", "verticalUnit": "FT"}, "geometry": {"type": "Point", "coordinates": [6.126111, 49.070556]}}, {"type": "Feature", "properties": {"zoneType": "Aerodrome / Heliport", "organisationAuthority": "FRANCE", "codeType": "AD", "name": "METZ FRESCATY", "codeId": "LFSF", "codeIcao": "LFSF", "codeIata": "MZM", "elevation": "629", "verticalUnit": "FT"}, "geometry": {"type": "Point", "coordinates": [6.133889, 49.076389]}}, {"type": "Feature", "properties": {"zoneType": "Aerodrome / Heliport", "organisationAuthority": "FRANCE", "codeType": "HP", "name": "COLMAR MEYENHEIM", "codeId": "LFH471", "elevation": "660", "verticalUnit": "FT"}, "geometry": {"type": "Point", "coordinates": [7.4025, 47.919167]}}, {"type": "Feature", "properties": {"zoneType": "Aerodrome / Heliport", "organisationAuthority": "FRANCE", "codeType": "HP", "name": "CARCASSONNE MONTREDON CENTRE HOSPITALIER", "codeId": "LFH11", "elevation": "352", "verticalUnit": "FT"}, "geometry": {"type": "Point", "coordinates": [2.394444, 43.219722]}}, {"type": "Feature", "properties": {"zoneType": "Aerodrome / Heliport", "organisationAuthority": "FRANCE", "codeType": "HP", "name": "PRECHAC", "codeId": "LFH277", "elevation": "2087", "verticalUnit": "FT"}, "geometry": {"type": "Point", "coordinates": [-0.079167, 43.0]}}, {"type": "Feature", "properties": {"zoneType": "Aerodrome / Heliport", "organisationAuthority": "FRANCE", "codeType": "HP", "name": "BEZIERS HOPITAL MONTIMARAN", "codeId": "LFH27", "elevation": "229", "verticalUnit": "FT"}, "geometry": {"type": "Point", "coordinates": [3.255556, 43.341111]}}, {"type": "Feature", "properties": {"zoneType": "Aerodrome / Heliport", "organisationAuthority": "FRANCE", "codeType": "HP", "name": "SELESTAT CENTRE HOSPITALIER", "codeId": "LFH393", "elevation": "587", "verticalUnit": "FT"}, "geometry": {"type": "Point", "coordinates": [7.432222, 48.261667]}}, {"type": "Feature", "properties": {"zoneType": "Aerodrome / Heliport", "organisationAuthority": "FRANCE", "codeType": "AD", "name": "CAMBRAI NIERGNIES", "codeId": "LFYG", "codeIcao": "LFYG", "codeIata": "XCB", "elevation": "312", "verticalUnit": "FT", "cityServing": "CAMBRAI"}, "geometry": {"type": "Point", "coordinates": [3.263611, 50.141389]}}, {"type": "Feature", "properties": {"zoneType": "Aerodrome / Heliport", "organisationAuthority": "FRANCE", "codeType": "AD", "name": "CHATEAUROUX DEOLS", "codeId": "LFLX", "codeIcao": "LFLX", "elevation": "529", "verticalUnit": "FT", "description": "TWR", "descriptionSite": "5.5 km NNE CHATEAUROUX", "nameAdmin": "AEROPORT CHATEAUROUX CENTRE"}, "geometry": {"type": "Point", "coordinates": [1.721125, 46.860314]}}, {"type": "Feature", "properties": {"zoneType": "Aerodrome / Heliport", "organisationAuthority": "FRANCE", "codeType": "AD", "name": "VICHY CHARMEIL", "codeId": "LFLV", "codeIcao": "LFLV", "codeIata": "VHY", "elevation": "817", "verticalUnit": "FT", "descriptionSite": "5 km NNW Vichy", "cityServing": "VICHY", "nameAdmin": "VICHY COMMUNAUTE"}, "geometry": {"type": "Point", "coordinates": [3.404033, 46.171783]}}, {"type": "Feature", "properties": {"zoneType": "Aerodrome / Heliport", "organisationAuthority": "POLYNESIE FRANCAISE", "codeType": "AD", "name": "RAIVAVAE", "codeId": "NTAV", "codeIcao": "NTAV", "codeIata": "RVV", "elevation": "15", "verticalUnit": "FT", "description": "Intersection axes RWY et TWY\\\\RWY and TWY Centreline intersection", "descriptionSite": "6 km S Rairua", "nameAdmin": "DAC POLYNESIE FRANCAISE"}, "geometry": {"type": "Point", "coordinates": [-147.665278, -23.886389]}}, {"type": "Feature", "properties": {"zoneType": "Aerodrome / Heliport", "organisationAuthority": "FRANCE", "codeType": "AD", "name": "VALENCIENNES DENAIN", "codeId": "LFAV", "codeIcao": "LFAV", "elevation": "165", "verticalUnit": "FT", "descriptionSite": "4 km SW Valenciennes", "cityServing": "VALENCIENNES", "nameAdmin": "SYNDICAT MIXTE DE L'AERODROME DE VALENCIENNES DENAIN"}, "geometry": {"type": "Point", "coordinates": [3.465444, 50.324792]}}, {"type": "Feature", "properties": {"zoneType": "Aerodrome / Heliport", "organisationAuthority": "FRANCE", "codeType": "HP", "name": "BORDEAUX HAUT LEVEQUE CENTRE HOSPITALIER", "codeId": "LFH397", "elevation": "275", "verticalUnit": "FT"}, "geometry": {"type": "Point", "coordinates": [-0.660833, 44.785278]}}, {"type": "Feature", "properties": {"zoneType": "Aerodrome / Heliport", "organisationAuthority": "POLYNESIE FRANCAISE", "codeType": "AD", "name": "MAKEMO", "codeId": "NTGM", "codeIcao": "NTGM", "elevation": "11", "verticalUnit": "FT", "description": "Intersection RWY et TWY", "descriptionSite": "10 km WNW Pouheva", "nameAdmin": "DAC POLYNESIE FRANCAISE"}, "geometry": {"type": "Point", "coordinates": [-143.653889, -16.586667]}}, {"type": "Feature", "properties": {"zoneType": "Aerodrome / Heliport", "organisationAuthority": "FRANCE", "codeType": "AD", "name": "LIBOURNE ARTIGUES DE LUSSAC", "codeId": "LFDI", "codeIcao": "LFDI", "codeIata": "XLR", "elevation": "157", "verticalUnit": "FT", "cityServing": "LIBOURNE"}, "geometry": {"type": "Point", "coordinates": [-0.137222, 44.984167]}}, {"type": "Feature", "properties": {"zoneType": "Aerodrome / Heliport", "organisationAuthority": "FRANCE", "codeType": "AD", "name": "LE MANS ARNAGE", "codeId": "LFRM", "codeIcao": "LFRM", "codeIata": "LME", "elevation": "194", "verticalUnit": "FT", "descriptionSite": "5 km S Le Mans", "cityServing": "LE MANS", "nameAdmin": "CCI DU MANS ET DE LA SARTHE"}, "geometry": {"type": "Point", "coordinates": [0.201647, 47.948492]}}, {"type": "Feature", "properties": {"zoneType": "Aerodrome / Heliport", "organisationAuthority": "FRANCE", "codeType": "AD", "name": "MURET LHERM", "codeId": "LFBR", "codeIcao": "LFBR", "elevation": "623", "verticalUnit": "FT", "descriptionSite": "5 km WSW Muret", "cityServing": "MURET", "nameAdmin": "VILLE DE MURET"}, "geometry": {"type": "Point", "coordinates": [1.263694, 43.449156]}}, {"type": "Feature", "properties": {"zoneType": "Aerodrome / Heliport", "organisationAuthority": "FRANCE", "codeType": "HP", "name": "LE PLESSIS ROBINSON CENTRE CHIRURGICAL MARIE LANNELONGUE", "codeId": "LFH400", "elevation": "382", "verticalUnit": "FT"}, "geometry": {"type": "Point", "coordinates": [2.274167, 48.784722]}}, {"type": "Feature", "properties": {"zoneType": "Aerodrome / Heliport", "organisationAuthority": "FRANCE", "codeType": "AD", "name": "GUERET SAINT LAURENT", "codeId": "LFCE", "codeIcao": "LFCE", "codeIata": "XGT", "elevation": "1208", "verticalUnit": "FT", "cityServing": "GUERET"}, "geometry": {"type": "Point", "coordinates": [1.953056, 46.175556]}}, {"type": "Feature", "properties": {"zoneType": "Aerodrome / Heliport", "organisationAuthority": "FRANCE", "codeType": "AD", "name": "MELUN VILLAROCHE", "codeId": "LFPM", "codeIcao": "LFPM", "elevation": "304", "verticalUnit": "FT", "descriptionSite": "8.5 km N Melun", "nameAdmin": "SYMPAV"}, "geometry": {"type": "Point", "coordinates": [2.670781, 48.605283]}}, {"type": "Feature", "properties": {"zoneType": "Aerodrome / Heliport", "organisationAuthority": "ANTILLES FRANCAISES", "codeType": "HP", "name": "PIERRE ZOBDA QUITMAN 2 CENTRE HOSPITALIER", "codeId": "TFH3", "elevation": "438", "verticalUnit": "FT"}, "geometry": {"type": "Point", "coordinates": [-61.0375, 14.633333]}}, {"type": "Feature", "properties": {"zoneType": "Aerodrome / Heliport", "organisationAuthority": "FRANCE", "codeType": "AD", "name": "SAINTES THENAC", "codeId": "LFXB", "codeIcao": "LFXB", "codeIata": "XST", "elevation": "118", "verticalUnit": "FT", "cityServing": "SAINTES"}, "geometry": {"type": "Point", "coordinates": [-0.636111, 45.701944]}}, {"type": "Feature", "properties": {"zoneType": "Aerodrome / Heliport", "organisationAuthority": "FRANCE", "codeType": "HP", "name": "ANNECY CENTRE HOSPITALIER", "codeId": "LFH12", "elevation": "1512", "verticalUnit": "FT"}, "geometry": {"type": "Point", "coordinates": [6.118333, 45.931389]}}, {"type": "Feature", "properties": {"zoneType": "Aerodrome / Heliport", "organisationAuthority": "FRANCE", "codeType": "HP", "name": "MONTCEAU LES MINES CENTRE HOSPITALIER", "codeId": "LFH301", "elevation": "958", "verticalUnit": "FT"}, "geometry": {"type": "Point", "coordinates": [4.333889, 46.65]}}, {"type": "Feature", "properties": {"zoneType": "Aerodrome / Heliport", "organisationAuthority": "FRANCE", "codeType": "HP", "name": "SAINT DIZIER CENTRE HOSPITALIER", "codeId": "LFH184", "elevation": "528", "verticalUnit": "FT"}, "geometry": {"type": "Point", "coordinates": [4.96495, 48.654953]}}, {"type": "Feature", "properties": {"zoneType": "Aerodrome / Heliport", "organisationAuthority": "FRANCE", "codeType": "HP", "name": "LACANAU LE HUGA", "codeId": "LFH116", "elevation": "52", "verticalUnit": "FT"}, "geometry": {"type": "Point", "coordinates": [-1.164722, 45.006944]}}, {"type": "Feature", "properties": {"zoneType": "Aerodrome / Heliport", "organisationAuthority": "FRANCE", "codeType": "AD", "name": "ROUEN VALLEE DE SEINE", "codeId": "LFOP", "codeIcao": "LFOP", "codeIata": "URO", "elevation": "512", "verticalUnit": "FT", "description": "THR 22", "descriptionSite": "10 KM de ROUEN.", "cityServing": "ROUEN", "nameAdmin": "REARVS"}, "geometry": {"type": "Point", "coordinates": [1.183936, 49.390953]}}, {"type": "Feature", "properties": {"zoneType": "Aerodrome / Heliport", "organisationAuthority": "FRANCE", "codeType": "AD", "name": "BLOIS LE BREUIL", "codeId": "LFOQ", "codeIcao": "LFOQ", "codeIata": "XBQ", "elevation": "398", "verticalUnit": "FT", "description": "Intersection axe RWY et TWY B\\\\RWY and TWY B intersection", "descriptionSite": "8 NM de Blois, 8 NM de Vendôme", "cityServing": "BLOIS", "nameAdmin": "CONSEIL DEPARTEMENTAL DE LOIR-ET-CHER"}, "geometry": {"type": "Point", "coordinates": [1.205775, 47.679833]}}, {"type": "Feature", "properties": {"zoneType": "Aerodrome / Heliport", "organisationAuthority": "POLYNESIE FRANCAISE", "codeType": "AD", "name": "MANIHI", "codeId": "NTGI", "codeIcao": "NTGI", "elevation": "22", "verticalUnit": "FT", "description": "Intersection axes RWY et TWY\\\\Intersection RWY and TWY center-lines", "descriptionSite": "3 km NNW village Paeva", "nameAdmin": "DAC POLYNESIE FRANCAISE"}, "geometry": {"type": "Point", "coordinates": [-146.063611, -14.432222]}}, {"type": "Feature", "properties": {"zoneType": "Aerodrome / Heliport", "organisationAuthority": "POLYNESIE FRANCAISE", "codeType": "AD", "name": "MATAIVA", "codeId": "NTGV", "codeIcao": "NTGV", "elevation": "18", "verticalUnit": "FT", "description": "Intersection axe RWY et axe TWY", "descriptionSite": "Ouest du village de Pahua\\\\West of Pahua Village", "nameAdmin": "DAC POLYNESIE FRANCAISE"}, "geometry": {"type": "Point", "coordinates": [-148.712778, -14.869444]}}, {"type": "Feature", "properties": {"zoneType": "Aerodrome / Heliport", "organisationAuthority": "POLYNESIE FRANCAISE", "codeType": "AD", "name": "MAUPITI", "codeId": "NTTP", "codeIcao": "NTTP", "elevation": "22", "verticalUnit": "FT", "description": "Intersection axes RWY et TWY", "descriptionSite": "2 km N village", "nameAdmin": "DAC POLYNESIE FRANCAISE"}, "geometry": {"type": "Point", "coordinates": [-152.2425, -16.426389]}}, {"type": "Feature", "properties": {"zoneType": "Aerodrome / Heliport", "organisationAuthority": "POLYNESIE FRANCAISE", "codeType": "AD", "name": "MOOREA TEMAE", "codeId": "NTTM", "codeIcao": "NTTM", "elevation": "16", "verticalUnit": "FT", "description": "Intersection axe RWY et axe TWY ALPHA\\\\Intersection of the RWY and TWY ALPHA centerlines", "descriptionSite": "7,5 km NE AFAREAITU", "nameAdmin": "DAC POLYNESIE FRANCAISE"}, "geometry": {"type": "Point", "coordinates": [-149.762222, -17.489444]}}, {"type": "Feature", "properties": {"zoneType": "Aerodrome / Heliport", "organisationAuthority": "POLYNESIE FRANCAISE", "codeType": "AD", "name": "NAPUKA", "codeId": "NTGN", "codeIcao": "NTGN", "elevation": "13", "verticalUnit": "FT", "description": "Intersection axes RWY et TWY\\\\Intersection of RWY and TWY centerlines", "descriptionSite": "1 km SE Tepukamaruia", "nameAdmin": "DAC POLYNESIE FRANCAISE"}, "geometry": {"type": "Point", "coordinates": [-141.266944, -14.176944]}}, {"type": "Feature", "properties": {"zoneType": "Aerodrome / Heliport", "organisationAuthority": "POLYNESIE FRANCAISE", "codeType": "AD", "name": "NIAU", "codeId": "NTKN", "codeIcao": "NTKN", "elevation": "21", "verticalUnit": "FT", "description": "Intersection RWY et TWY", "descriptionSite": "4 km NW TUPANA", "nameAdmin": "DAC POLYNESIE FRANCAISE"}, "geometry": {"type": "Point", "coordinates": [-146.373611, -16.120833]}}, {"type": "Feature", "properties": {"zoneType": "Aerodrome / Heliport", "organisationAuthority": "POLYNESIE FRANCAISE", "codeType": "AD", "name": "NUKUTAVAKE", "codeId": "NTGW", "codeIcao": "NTGW", "elevation": "17", "verticalUnit": "FT", "description": "Intersection des axes RWY et TWY\\\\RWY and TWY centreline intersection", "descriptionSite": "1 km SE du village Tavava", "nameAdmin": "DAC POLYNESIE FRANCAISE"}, "geometry": {"type": "Point", "coordinates": [-138.771667, -19.285]}}, {"type": "Feature", "properties": {"zoneType": "Aerodrome / Heliport", "organisationAuthority": "POLYNESIE FRANCAISE", "codeType": "AD", "name": "PUKA PUKA", "codeId": "NTGP", "codeIcao": "NTGP", "elevation": "13", "verticalUnit": "FT", "description": "Intersection RWY et TWY", "descriptionSite": "3 km NE village Teonemahina", "nameAdmin": "DAC POLYNESIE FRANCAISE"}, "geometry": {"type": "Point", "coordinates": [-138.811111, -14.81]}}, {"type": "Feature", "properties": {"zoneType": "Aerodrome / Heliport", "organisationAuthority": "POLYNESIE FRANCAISE", "codeType": "AD", "name": "PUKARUA", "codeId": "NTGQ", "codeIcao": "NTGQ", "elevation": "13", "verticalUnit": "FT", "description": "Intersection des axes RWY et TWY\\\\Intersection of the RWY and TWY centrelines", "descriptionSite": "6.5 km E village", "nameAdmin": "DAC POLYNESIE FRANCAISE"}, "geometry": {"type": "Point", "coordinates": [-137.016667, -18.295278]}}, {"type": "Feature", "properties": {"zoneType": "Aerodrome / Heliport", "organisationAuthority": "FRANCE", "codeType": "HP", "name": "AULNAY SOUS BOIS CENTRE HOSPITALIER", "codeId": "LFH240", "elevation": "190", "verticalUnit": "FT"}, "geometry": {"type": "Point", "coordinates": [2.521111, 48.954444]}}, {"type": "Feature", "properties": {"zoneType": "Aerodrome / Heliport", "organisationAuthority": "FRANCE", "codeType": "HP", "name": "SARLAT LA CANEDA CENTRE HOSPITALIER", "codeId": "LFH360", "elevation": "662", "verticalUnit": "FT"}, "geometry": {"type": "Point", "coordinates": [1.222956, 44.900003]}}, {"type": "Feature", "properties": {"zoneType": "Aerodrome / Heliport", "organisationAuthority": "FRANCE", "codeType": "HP", "name": "LYON HOPITAL EDOUARD HERRIOT", "codeId": "LFH128", "elevation": "658", "verticalUnit": "FT"}, "geometry": {"type": "Point", "coordinates": [4.883056, 45.743889]}}, {"type": "Feature", "properties": {"zoneType": "Aerodrome / Heliport", "organisationAuthority": "FRANCE", "codeType": "HP", "name": "LYON GROUPEMENT HOSPITALIER EST", "codeId": "LFH417", "elevation": "818", "verticalUnit": "FT"}, "geometry": {"type": "Point", "coordinates": [4.9025, 45.747778]}}, {"type": "Feature", "properties": {"zoneType": "Aerodrome / Heliport", "organisationAuthority": "FRANCE", "codeType": "HP", "name": "LYON CENTRE HOSPITALIER SUD", "codeId": "LFH418", "elevation": "753", "verticalUnit": "FT"}, "geometry": {"type": "Point", "coordinates": [4.8075, 45.7025]}}, {"type": "Feature", "properties": {"zoneType": "Aerodrome / Heliport", "organisationAuthority": "FRANCE", "codeType": "HP", "name": "CHARLEVILLE MEZIERES CENTRE HOSPITALIER", "codeId": "LFH374", "elevation": "577", "verticalUnit": "FT"}, "geometry": {"type": "Point", "coordinates": [4.697583, 49.762608]}}, {"type": "Feature", "properties": {"zoneType": "Aerodrome / Heliport", "organisationAuthority": "FRANCE", "codeType": "HP", "name": "STRASBOURG N.H.C.", "codeId": "LFH298", "elevation": "540", "verticalUnit": "FT"}, "geometry": {"type": "Point", "coordinates": [7.740556, 48.575833]}}, {"type": "Feature", "properties": {"zoneType": "Aerodrome / Heliport", "organisationAuthority": "FRANCE", "codeType": "HP", "name": "MELUN SANTEPOLE", "codeId": "LFH455", "elevation": "338", "verticalUnit": "FT"}, "geometry": {"type": "Point", "coordinates": [2.641667, 48.5575]}}, {"type": "Feature", "properties": {"zoneType": "Aerodrome / Heliport", "organisationAuthority": "FRANCE", "codeType": "AD", "name": "ALBERTVILLE GENERAL PIERRE DELACHENAL", "codeId": "LFKA", "codeIcao": "LFKA", "codeIata": "XAV", "elevation": "1035", "verticalUnit": "FT"}, "geometry": {"type": "Point", "coordinates": [6.328889, 45.626389]}}, {"type": "Feature", "properties": {"zoneType": "Aerodrome / Heliport", "organisationAuthority": "FRANCE", "codeType": "AD", "name": "FONTENAY LE COMTE", "codeId": "LFFK", "codeIcao": "LFFK", "elevation": "80", "verticalUnit": "FT", "description": "Milieu de la piste revêtue\\\\Middle of the paved RWY", "descriptionSite": "3 km SSE FONTENAY-LE-COMTE (85 - Vendée)", "cityServing": "FONTENAY LE COMTE", "nameAdmin": "MAIRIE DE LA VILLE DE FONTENAY LE COMTE"}, "geometry": {"type": "Point", "coordinates": [-0.793889, 46.440833]}}, {"type": "Feature", "properties": {"zoneType": "Aerodrome / Heliport", "organisationAuthority": "FRANCE", "codeType": "HP", "name": "TOURS TROUSSEAU CHU", "codeId": "LFH366", "elevation": "274", "verticalUnit": "FT"}, "geometry": {"type": "Point", "coordinates": [0.709206, 47.348969]}}, {"type": "Feature", "properties": {"zoneType": "Aerodrome / Heliport", "organisationAuthority": "FRANCE", "codeType": "HP", "name": "METZ MERCY CENTRE HOSPITALIER", "codeId": "LFH453", "elevation": "868", "verticalUnit": "FT"}, "geometry": {"type": "Point", "coordinates": [6.241389, 49.083611]}}, {"type": "Feature", "properties": {"zoneType": "Aerodrome / Heliport", "organisationAuthority": "FRANCE", "codeType": "AD", "name": "ALBERT BRAY", "codeId": "LFAQ", "codeIcao": "LFAQ", "codeIata": "BYF", "elevation": "363", "verticalUnit": "FT", "descriptionSite": "4 km SE Albert", "cityServing": "ALBERT", "nameAdmin": "RAAP"}, "geometry": {"type": "Point", "coordinates": [2.692617, 49.970061]}}, {"type": "Feature", "properties": {"zoneType": "Aerodrome / Heliport", "organisationAuthority": "POLYNESIE FRANCAISE", "codeType": "AD", "name": "TUBUAI MATAURA", "codeId": "NTAT", "codeIcao": "NTAT", "elevation": "17", "verticalUnit": "FT", "description": "Intersection axe RWY et axe TWY", "descriptionSite": "4,8 km SW Mataura", "nameAdmin": "DAC POLYNESIE FRANCAISE"}, "geometry": {"type": "Point", "coordinates": [-149.529722, -23.369722]}}, {"type": "Feature", "properties": {"zoneType": "Aerodrome / Heliport", "organisationAuthority": "FRANCE", "codeType": "HP", "name": "AIX EN PROVENCE CENTRE HOSPITALIER", "codeId": "LFH236", "elevation": "721", "verticalUnit": "FT"}, "geometry": {"type": "Point", "coordinates": [5.442236, 43.534717]}}, {"type": "Feature", "properties": {"zoneType": "Aerodrome / Heliport", "organisationAuthority": "FRANCE", "codeType": "HP", "name": "SENS CENTRE DE SECOURS PRINCIPAL", "codeId": "LFH296", "elevation": "266", "verticalUnit": "FT"}, "geometry": {"type": "Point", "coordinates": [3.306389, 48.191944]}}, {"type": "Feature", "properties": {"zoneType": "Aerodrome / Heliport", "organisationAuthority": "FRANCE", "codeType": "HP", "name": "LANNION CENTRE HOSPITALIER", "codeId": "LFH118", "elevation": "92", "verticalUnit": "FT"}, "geometry": {"type": "Point", "coordinates": [-3.465278, 48.722778]}}, {"type": "Feature", "properties": {"zoneType": "Aerodrome / Heliport", "organisationAuthority": "FRANCE", "codeType": "HP", "name": "EVREUX CENTRE HOSPITALIER", "codeId": "LFH408", "elevation": "390", "verticalUnit": "FT"}, "geometry": {"type": "Point", "coordinates": [1.114167, 49.031111]}}, {"type": "Feature", "properties": {"zoneType": "Aerodrome / Heliport", "organisationAuthority": "FRANCE", "codeType": "HP", "name": "POITIERS CENTRE HOSPITALIER", "codeId": "LFH167", "elevation": "400", "verticalUnit": "FT"}, "geometry": {"type": "Point", "coordinates": [0.382778, 46.560556]}}, {"type": "Feature", "properties": {"zoneType": "Aerodrome / Heliport", "organisationAuthority": "FRANCE", "codeType": "HP", "name": "EPINAL EMILE DURKHEIM CENTRE HOSPITALIER", "codeId": "LFH25", "elevation": "1295", "verticalUnit": "FT"}, "geometry": {"type": "Point", "coordinates": [6.454444, 48.181111]}}, {"type": "Feature", "properties": {"zoneType": "Aerodrome / Heliport", "organisationAuthority": "POLYNESIE FRANCAISE", "codeType": "AD", "name": "RAIATEA UTUROA", "codeId": "NTTR", "codeIcao": "NTTR", "elevation": "6", "verticalUnit": "FT", "description": "Intersection RWY et TWY principal\\\\RWY and main TWY intersection", "descriptionSite": "2,4 km NW Uturoa", "nameAdmin": "AEROPORT DE TAHITI (ADT)"}, "geometry": {"type": "Point", "coordinates": [-151.466944, -16.723056]}}, {"type": "Feature", "properties": {"zoneType": "Aerodrome / Heliport", "organisationAuthority": "POLYNESIE FRANCAISE", "codeType": "AD", "name": "RANGIROA", "codeId": "NTTG", "codeIcao": "NTTG", "elevation": "10", "verticalUnit": "FT", "description": "Intersection RWY et TWY", "descriptionSite": "5,5 km SE Avatoru", "nameAdmin": "AEROPORT DE TAHITI (ADT)"}, "geometry": {"type": "Point", "coordinates": [-147.657778, -14.955278]}}, {"type": "Feature", "properties": {"zoneType": "Aerodrome / Heliport", "organisationAuthority": "POLYNESIE FRANCAISE", "codeType": "AD", "name": "REAO", "codeId": "NTGE", "codeIcao": "NTGE", "elevation": "12", "verticalUnit": "FT", "description": "Intersection axes RWY et TWY\\\\RWY and TWY centerlines intersection", "descriptionSite": "2 km E Tapuarava", "nameAdmin": "DAC POLYNESIE FRANCAISE"}, "geometry": {"type": "Point", "coordinates": [-136.443056, -18.463333]}}, {"type": "Feature", "properties": {"zoneType": "Aerodrome / Heliport", "organisationAuthority": "POLYNESIE FRANCAISE", "codeType": "AD", "name": "RIMATARA", "codeId": "NTAM", "codeIcao": "NTAM", "elevation": "50", "verticalUnit": "FT", "description": "Intersection RWY et TWY", "descriptionSite": "Au Nord de l'île\\\\North of the island", "nameAdmin": "DAC POLYNESIE FRANCAISE"}, "geometry": {"type": "Point", "coordinates": [-152.805278, -22.637222]}}, {"type": "Feature", "properties": {"zoneType": "Aerodrome / Heliport", "organisationAuthority": "FRANCE", "codeType": "HP", "name": "VESOUL CENTRE HOSPITALIER", "codeId": "LFH401", "elevation": "741", "verticalUnit": "FT"}, "geometry": {"type": "Point", "coordinates": [6.137222, 47.636944]}}, {"type": "Feature", "properties": {"zoneType": "Aerodrome / Heliport", "organisationAuthority": "FRANCE", "codeType": "AD", "name": "SAULIEU LIERNAIS", "codeId": "LFEW", "codeIcao": "LFEW", "elevation": "1710", "verticalUnit": "FT", "cityServing": "SAULIEU"}, "geometry": {"type": "Point", "coordinates": [4.264444, 47.238611]}}, {"type": "Feature", "properties": {"zoneType": "Aerodrome / Heliport", "organisationAuthority": "FRANCE", "codeType": "HP", "name": "MARNE LA VALLEE CENTRE HOSPITALIER", "codeId": "LFH458", "elevation": "412", "verticalUnit": "FT"}, "geometry": {"type": "Point", "coordinates": [2.769722, 48.848611]}}, {"type": "Feature", "properties": {"zoneType": "Aerodrome / Heliport", "organisationAuthority": "FRANCE", "codeType": "AD", "name": "SARRE UNION", "codeId": "LFQU", "codeIcao": "LFQU", "elevation": "842", "verticalUnit": "FT"}, "geometry": {"type": "Point", "coordinates": [7.076389, 48.950833]}}, {"type": "Feature", "properties": {"zoneType": "Aerodrome / Heliport", "organisationAuthority": "FRANCE", "codeType": "AD", "name": "LA ROCHELLE ILE DE RE", "codeId": "LFBH", "codeIcao": "LFBH", "codeIata": "LRH", "elevation": "74", "verticalUnit": "FT", "description": "Intersection axe RWY et axe TWY.\\\\Intersection of RWY and TWY centre lines.", "descriptionSite": "2.5 km NW de La Rochelle.", "cityServing": "LA ROCHELLE", "nameAdmin": "SM LRH RCO"}, "geometry": {"type": "Point", "coordinates": [-1.195236, 46.179211]}}, {"type": "Feature", "properties": {"zoneType": "Aerodrome / Heliport", "organisationAuthority": "FRANCE", "codeType": "HP", "name": "VICHY CENTRE HOSPITALIER", "codeId": "LFH28", "elevation": "956", "verticalUnit": "FT"}, "geometry": {"type": "Point", "coordinates": [3.437222, 46.123611]}}, {"type": "Feature", "properties": {"zoneType": "Aerodrome / Heliport", "organisationAuthority": "FRANCE", "codeType": "HP", "name": "LOCHES CENTRE HOSPITALIER", "codeId": "LFH403", "elevation": "231", "verticalUnit": "FT"}, "geometry": {"type": "Point", "coordinates": [1.003056, 47.130556]}}, {"type": "Feature", "properties": {"zoneType": "Aerodrome / Heliport", "organisationAuthority": "NOUVELLE CALEDONIE", "codeType": "AD", "name": "KOUMAC", "codeId": "NWWK", "codeIcao": "NWWK", "elevation": "42", "verticalUnit": "FT", "description": "Centre RWY", "descriptionSite": "3 km NW Koumac", "nameAdmin": "PROVINCE NORD - DIRECTION DE L'AMENAGEMENT ET DU FONCIER"}, "geometry": {"type": "Point", "coordinates": [164.255556, -20.546389]}}, {"type": "Feature", "properties": {"zoneType": "Aerodrome / Heliport", "organisationAuthority": "FRANCE", "codeType": "AD", "name": "DAX SEYRESSE", "codeId": "LFBY", "codeIcao": "LFBY", "codeIata": "XDA", "elevation": "108", "verticalUnit": "FT", "cityServing": "DAX"}, "geometry": {"type": "Point", "coordinates": [-1.068889, 43.689167]}}, {"type": "Feature", "properties": {"zoneType": "Aerodrome / Heliport", "organisationAuthority": "FRANCE", "codeType": "AD", "name": "BERGERAC DORDOGNE PERIGORD", "codeId": "LFBE", "codeIcao": "LFBE", "codeIata": "EGC", "elevation": "172", "verticalUnit": "FT", "description": "Intersection des axes de la piste et du TWY B\\\\RWY center line and TWY B intersection.", "descriptionSite": "3 km SSE BERGERAC (24 - Dordogne)", "cityServing": "BERGERAC", "nameAdmin": "EGC AERO"}, "geometry": {"type": "Point", "coordinates": [0.520525, 44.824431]}}, {"type": "Feature", "properties": {"zoneType": "Aerodrome / Heliport", "organisationAuthority": "POLYNESIE FRANCAISE", "codeType": "AD", "name": "ANAA", "codeId": "NTGA", "codeIcao": "NTGA", "elevation": "21", "verticalUnit": "FT", "description": "Intersection RWY et TWY", "descriptionSite": "2 km SE Tukuhora", "nameAdmin": "DAC POLYNESIE FRANCAISE"}, "geometry": {"type": "Point", "coordinates": [-145.508333, -17.355]}}, {"type": "Feature", "properties": {"zoneType": "Aerodrome / Heliport", "organisationAuthority": "FRANCE", "codeType": "HP", "name": "LA ROCHELLE CENTRE HOSPITALIER", "codeId": "LFH323", "elevation": "49", "verticalUnit": "FT"}, "geometry": {"type": "Point", "coordinates": [-1.143056, 46.158889]}}, {"type": "Feature", "properties": {"zoneType": "Aerodrome / Heliport", "organisationAuthority": "FRANCE", "codeType": "AD", "name": "LANGOGNE LESPERON", "codeId": "LFHL", "codeIcao": "LFHL", "elevation": "3339", "verticalUnit": "FT", "cityServing": "LANGOGNE"}, "geometry": {"type": "Point", "coordinates": [3.887222, 44.705556]}}, {"type": "Feature", "properties": {"zoneType": "Aerodrome / Heliport", "organisationAuthority": "FRANCE", "codeType": "AD", "name": "MEGEVE", "codeId": "LFHM", "codeIcao": "LFHM", "codeIata": "MVV", "elevation": "4830", "verticalUnit": "FT", "descriptionSite": "(5 Km SE Mégève) MEGEVE-74"}, "geometry": {"type": "Point", "coordinates": [6.648333, 45.824444]}}, {"type": "Feature", "properties": {"zoneType": "Aerodrome / Heliport", "organisationAuthority": "FRANCE", "codeType": "AD", "name": "LYON CORBAS", "codeId": "LFHJ", "codeIcao": "LFHJ", "elevation": "652", "verticalUnit": "FT"}, "geometry": {"type": "Point", "coordinates": [4.912222, 45.652778]}}, {"type": "Feature", "properties": {"zoneType": "Aerodrome / Heliport", "organisationAuthority": "FRANCE", "codeType": "AD", "name": "MACON CHARNAY", "codeId": "LFLM", "codeIcao": "LFLM", "codeIata": "QNX", "elevation": "729", "verticalUnit": "FT", "cityServing": "MACON"}, "geometry": {"type": "Point", "coordinates": [4.795858, 46.295922]}}, {"type": "Feature", "properties": {"zoneType": "Aerodrome / Heliport", "organisationAuthority": "FRANCE", "codeType": "HP", "name": "SAVOIE HELICOPTERES", "codeId": "LFH466", "elevation": "1535", "verticalUnit": "FT"}, "geometry": {"type": "Point", "coordinates": [6.517778, 46.071111]}}, {"type": "Feature", "properties": {"zoneType": "Aerodrome / Heliport", "organisationAuthority": "FRANCE", "codeType": "HP", "name": "FECAMP CENTRE HOSPITALIER", "codeId": "LFH267", "elevation": "318", "verticalUnit": "FT"}, "geometry": {"type": "Point", "coordinates": [0.385556, 49.743056]}}, {"type": "Feature", "properties": {"zoneType": "Aerodrome / Heliport", "organisationAuthority": "FRANCE", "codeType": "HP", "name": "ANGOULEME CENTRE HOSPITALIER", "codeId": "LFH10", "elevation": "154", "verticalUnit": "FT"}, "geometry": {"type": "Point", "coordinates": [0.117778, 45.634167]}}, {"type": "Feature", "properties": {"zoneType": "Aerodrome / Heliport", "organisationAuthority": "FRANCE", "codeType": "HP", "name": "MONTLUCON CENTRE HOSPITALIER", "codeId": "LFH32", "elevation": "802", "verticalUnit": "FT"}, "geometry": {"type": "Point", "coordinates": [2.609444, 46.341667]}}, {"type": "Feature", "properties": {"zoneType": "Aerodrome / Heliport", "organisationAuthority": "FRANCE", "codeType": "HP", "name": "CLERMONT FERRAND ESTAING", "codeId": "LFH428", "elevation": "1203", "verticalUnit": "FT"}, "geometry": {"type": "Point", "coordinates": [3.109722, 45.785556]}}, {"type": "Feature", "properties": {"zoneType": "Aerodrome / Heliport", "organisationAuthority": "FRANCE", "codeType": "AD", "name": "CHAMPAGNOLE CROTENAY", "codeId": "LFGX", "codeIcao": "LFGX", "elevation": "1745", "verticalUnit": "FT"}, "geometry": {"type": "Point", "coordinates": [5.819722, 46.763333]}}, {"type": "Feature", "properties": {"zoneType": "Aerodrome / Heliport", "organisationAuthority": "FRANCE", "codeType": "AD", "name": "AMBERT LE POYET", "codeId": "LFHT", "codeIcao": "LFHT", "elevation": "1848", "verticalUnit": "FT", "cityServing": "AMBERT"}, "geometry": {"type": "Point", "coordinates": [3.745, 45.515556]}}, {"type": "Feature", "properties": {"zoneType": "Aerodrome / Heliport", "organisationAuthority": "FRANCE", "codeType": "AD", "name": "NUITS SAINT GEORGES", "codeId": "LFGZ", "codeIcao": "LFGZ", "elevation": "794", "verticalUnit": "FT"}, "geometry": {"type": "Point", "coordinates": [4.968333, 47.142222]}}, {"type": "Feature", "properties": {"zoneType": "Aerodrome / Heliport", "organisationAuthority": "FRANCE", "codeType": "AD", "name": "BEAUVOIR FROMENTINE", "codeId": "LFFO", "codeIcao": "LFFO", "elevation": "10", "verticalUnit": "FT"}, "geometry": {"type": "Point", "coordinates": [-2.088611, 46.890556]}}, {"type": "Feature", "properties": {"zoneType": "Aerodrome / Heliport", "organisationAuthority": "FRANCE", "codeType": "HP", "name": "ORLEANS CENTRE HOSPITALIER", "codeId": "LFH345", "elevation": "424", "verticalUnit": "FT"}, "geometry": {"type": "Point", "coordinates": [1.919444, 47.835278]}}, {"type": "Feature", "properties": {"zoneType": "Aerodrome / Heliport", "organisationAuthority": "POLYNESIE FRANCAISE", "codeType": "AD", "name": "TAKAPOTO", "codeId": "NTGT", "codeIcao": "NTGT", "elevation": "17", "verticalUnit": "FT", "description": "Intersection axes RWY et TWY\\\\ Intersection of RWY and TWY centerlines", "descriptionSite": "Sud de Fakatopatere\\\\ South of Fakatopatere", "nameAdmin": "DAC POLYNESIE FRANCAISE"}, "geometry": {"type": "Point", "coordinates": [-145.247778, -14.709722]}}, {"type": "Feature", "properties": {"zoneType": "Aerodrome / Heliport", "organisationAuthority": "POLYNESIE FRANCAISE", "codeType": "AD", "name": "TAKUME", "codeId": "NTKM", "codeIcao": "NTKM", "elevation": "13", "verticalUnit": "FT", "description": "Intersection RWY et TWY", "descriptionSite": "1 km au Sud du village de Ohomo\\\\1 km South of Ohomo Village.", "nameAdmin": "DAC POLYNESIE FRANCAISE"}, "geometry": {"type": "Point", "coordinates": [-142.268333, -15.855556]}}, {"type": "Feature", "properties": {"zoneType": "Aerodrome / Heliport", "organisationAuthority": "POLYNESIE FRANCAISE", "codeType": "AD", "name": "TATAKOTO", "codeId": "NTGO", "codeIcao": "NTGO", "elevation": "17", "verticalUnit": "FT", "description": "Intersection RWY et TWY", "descriptionSite": "1 km au Sud du village \\\\1 km south of village.", "nameAdmin": "DAC POLYNESIE FRANCAISE"}, "geometry": {"type": "Point", "coordinates": [-138.445, -17.355278]}}, {"type": "Feature", "properties": {"zoneType": "Aerodrome / Heliport", "organisationAuthority": "POLYNESIE FRANCAISE", "codeType": "AD", "name": "TETIAROA", "codeId": "NTTE", "codeIcao": "NTTE", "elevation": "10", "verticalUnit": "FT", "description": "Intersection RWY et TWY", "descriptionSite": "Au Nord du complexe hôtelier. \\\\ North of the resort.", "nameAdmin": "TAHITI BEACHCOMBER SA."}, "geometry": {"type": "Point", "coordinates": [-149.588889, -17.014722]}}, {"type": "Feature", "properties": {"zoneType": "Aerodrome / Heliport", "organisationAuthority": "POLYNESIE FRANCAISE", "codeType": "AD", "name": "TIKEHAU", "codeId": "NTGC", "codeIcao": "NTGC", "elevation": "13", "verticalUnit": "FT", "description": "Intersection axes RWY et TWY.\\\\RWY and TWY axis intersection.", "descriptionSite": "1 km SE Tuherahera", "nameAdmin": "DAC POLYNESIE FRANCAISE"}, "geometry": {"type": "Point", "coordinates": [-148.233611, -15.120278]}}, {"type": "Feature", "properties": {"zoneType": "Aerodrome / Heliport", "organisationAuthority": "POLYNESIE FRANCAISE", "codeType": "AD", "name": "TOTEGEGIE", "codeId": "NTGJ", "codeIcao": "NTGJ", "elevation": "15", "verticalUnit": "FT", "description": "Intersection axes RWY et TWY. \\\\RWY and TWY centerlines intersection.", "descriptionSite": "9 km au NE du village de Rikitea", "nameAdmin": "DAC POLYNESIE FRANCAISE"}, "geometry": {"type": "Point", "coordinates": [-134.887222, -23.082778]}}, {"type": "Feature", "properties": {"zoneType": "Aerodrome / Heliport", "organisationAuthority": "FRANCE", "codeType": "AD", "name": "CAHORS LALBENQUE", "codeId": "LFCC", "codeIcao": "LFCC", "codeIata": "ZAO", "elevation": "912", "verticalUnit": "FT", "descriptionSite": "12 km S Cahors", "cityServing": "CAHORS", "nameAdmin": "SYNDICAT MIXTE - AERODROME DE CAHORS LALBENQUE"}, "geometry": {"type": "Point", "coordinates": [1.478586, 44.350542]}}, {"type": "Feature", "properties": {"zoneType": "Aerodrome / Heliport", "organisationAuthority": "WALLIS ET FUTUNA", "codeType": "AD", "name": "WALLIS HIHIFO", "codeId": "NLWW", "codeIcao": "NLWW", "elevation": "79", "verticalUnit": "FT", "description": "Sur RWY 08/26, à 1050 m du THR 08\\\\On RWY 08/26, at 1050 m from THR 08", "descriptionSite": "5.6 km NNW Mata Utu", "nameAdmin": "CAA: SEAC DES ILES WALLIS ET FUTUNA"}, "geometry": {"type": "Point", "coordinates": [-176.199167, -13.238333]}}, {"type": "Feature", "properties": {"zoneType": "Aerodrome / Heliport", "organisationAuthority": "FRANCE", "codeType": "AD", "name": "LIMOGES BELLEGARDE", "codeId": "LFBL", "codeIcao": "LFBL", "codeIata": "LIG", "elevation": "1300", "verticalUnit": "FT", "description": "Intersection axes RWY et TWY central.\\\\RWY and central TWY intersection.", "descriptionSite": "6 km WNW de LIMOGES.", "cityServing": "LIMOGES", "nameAdmin": "CCI DE LIMOGES"}, "geometry": {"type": "Point", "coordinates": [1.180306, 45.860764]}}, {"type": "Feature", "properties": {"zoneType": "Aerodrome / Heliport", "organisationAuthority": "FRANCE", "codeType": "HP", "name": "TONNERRE CENTRE HOSPITALIER", "codeId": "LFH450", "elevation": "456", "verticalUnit": "FT"}, "geometry": {"type": "Point", "coordinates": [3.979444, 47.855556]}}, {"type": "Feature", "properties": {"zoneType": "Aerodrome / Heliport", "organisationAuthority": "NOUVELLE CALEDONIE", "codeType": "AD", "name": "CANALA", "codeId": "NWWX", "codeIcao": "NWWX", "elevation": "8", "verticalUnit": "FT", "description": "Centre RWY", "descriptionSite": "Proximité immédiate, E Canala\\\\In the immediate vicinity, E Canala", "nameAdmin": "PROVINCE NORD - DIRECTION DE L'AMENAGEMENT ET DU FONCIER"}, "geometry": {"type": "Point", "coordinates": [165.971667, -21.520278]}}, {"type": "Feature", "properties": {"zoneType": "Aerodrome / Heliport", "organisationAuthority": "FRANCE", "codeType": "AD", "name": "NEUFCHATEAU", "codeId": "LFFT", "codeIcao": "LFFT", "elevation": "1228", "verticalUnit": "FT", "cityServing": "NEUFCHATEAU"}, "geometry": {"type": "Point", "coordinates": [5.720278, 48.361667]}}, {"type": "Feature", "properties": {"zoneType": "Aerodrome / Heliport", "organisationAuthority": "POLYNESIE FRANCAISE", "codeType": "AD", "name": "AHE", "codeId": "NTHE", "codeIcao": "NTHE", "elevation": "19", "verticalUnit": "FT", "description": "Intersection axes RWY et TWY\\\\RWY and TWY centrelines intersection", "descriptionSite": "16 km NE Tenukupara (par voie maritime)\\\\16 km NE of Tenukupara village (by maritime way)", "nameAdmin": "DAC POLYNESIE FRANCAISE"}, "geometry": {"type": "Point", "coordinates": [-146.255278, -14.4275]}}, {"type": "Feature", "properties": {"zoneType": "Aerodrome / Heliport", "organisationAuthority": "POLYNESIE FRANCAISE", "codeType": "AD", "name": "APATAKI", "codeId": "NTGD", "codeIcao": "NTGD", "elevation": "14", "verticalUnit": "FT", "description": "Intersection axe RWY et axe TWY", "descriptionSite": "0,2 km SW du village\\\\0,2 km SW from village", "nameAdmin": "DAC POLYNESIE FRANCAISE"}, "geometry": {"type": "Point", "coordinates": [-146.415, -15.573611]}}, {"type": "Feature", "properties": {"zoneType": "Aerodrome / Heliport", "organisationAuthority": "POLYNESIE FRANCAISE", "codeType": "AD", "name": "ARUTUA", "codeId": "NTGU", "codeIcao": "NTGU", "elevation": "16", "verticalUnit": "FT", "description": "Intersection axe RWY et axe TWY", "descriptionSite": "13 km N Rautini", "nameAdmin": "DAC POLYNESIE FRANCAISE"}, "geometry": {"type": "Point", "coordinates": [-146.620278, -15.246389]}}, {"type": "Feature", "properties": {"zoneType": "Aerodrome / Heliport", "organisationAuthority": "POLYNESIE FRANCAISE", "codeType": "AD", "name": "ARATIKA NORD", "codeId": "NTKK", "codeIcao": "NTKK", "elevation": "10", "verticalUnit": "FT", "description": "Intersection axes RWY 08/26 et TWY\\\\RWY 08/26 and TWY centerlines intersection", "descriptionSite": "3 km NW Paparara", "nameAdmin": "DAC POLYNESIE FRANCAISE"}, "geometry": {"type": "Point", "coordinates": [-145.47, -15.485]}}, {"type": "Feature", "properties": {"zoneType": "Aerodrome / Heliport", "organisationAuthority": "POLYNESIE FRANCAISE", "codeType": "AD", "name": "UA POU", "codeId": "NTMP", "codeIcao": "NTMP", "elevation": "123", "verticalUnit": "FT", "description": "THR RWY 32", "nameAdmin": "DAC POLYNESIE FRANCAISE"}, "geometry": {"type": "Point", "coordinates": [-140.078056, -9.350556]}}, {"type": "Feature", "properties": {"zoneType": "Aerodrome / Heliport", "organisationAuthority": "POLYNESIE FRANCAISE", "codeType": "AD", "name": "VAHITAHI", "codeId": "NTUV", "codeIcao": "NTUV", "elevation": "11", "verticalUnit": "FT", "description": "Intersection axes RWY et TWY\\\\RWY and TWY centrelines intersection", "descriptionSite": "0.3 km S Mohitu", "nameAdmin": "DAC POLYNESIE FRANCAISE"}, "geometry": {"type": "Point", "coordinates": [-138.853056, -18.779722]}}, {"type": "Feature", "properties": {"zoneType": "Aerodrome / Heliport", "organisationAuthority": "POLYNESIE FRANCAISE", "codeType": "AD", "name": "HIKUERU", "codeId": "NTGH", "codeIcao": "NTGH", "elevation": "12", "verticalUnit": "FT", "description": "Intersection axes RWY 10/28 et TWY\\\\RWY 10/28 and TWY centerlines intersection", "descriptionSite": "6 km E de Tupapati.", "nameAdmin": "DAC POLYNESIE FRANCAISE"}, "geometry": {"type": "Point", "coordinates": [-142.613056, -17.547778]}}, {"type": "Feature", "properties": {"zoneType": "Aerodrome / Heliport", "organisationAuthority": "POLYNESIE FRANCAISE", "codeType": "AD", "name": "ARATIKA PERLES", "codeId": "NTGR", "codeIcao": "NTGR", "elevation": "7", "verticalUnit": "FT", "description": "Intersection RWY et TWY", "descriptionSite": "15 km SW PAPARAVA", "nameAdmin": "PACIFIC PERLES (FOURCADE)."}, "geometry": {"type": "Point", "coordinates": [-145.5, -15.633333]}}, {"type": "Feature", "properties": {"zoneType": "Aerodrome / Heliport", "organisationAuthority": "POLYNESIE FRANCAISE", "codeType": "AD", "name": "BORA BORA MOTU MUTE", "codeId": "NTTB", "codeIcao": "NTTB", "elevation": "11", "verticalUnit": "FT", "description": "Intersection RWY et TWY\\\\Intersection RWY and TWY", "descriptionSite": "7 km N Vaitape", "nameAdmin": "AEROPORT DE TAHITI (ADT)"}, "geometry": {"type": "Point", "coordinates": [-151.7525, -16.443611]}}, {"type": "Feature", "properties": {"zoneType": "Aerodrome / Heliport", "organisationAuthority": "POLYNESIE FRANCAISE", "codeType": "AD", "name": "FAKAHINA", "codeId": "NTKH", "codeIcao": "NTKH", "elevation": "10", "verticalUnit": "FT", "description": "Intersection RWY et TWY", "descriptionSite": "1 km S village", "nameAdmin": "DAC POLYNESIE FRANCAISE"}, "geometry": {"type": "Point", "coordinates": [-140.164722, -15.991944]}}, {"type": "Feature", "properties": {"zoneType": "Aerodrome / Heliport", "organisationAuthority": "FRANCE", "codeType": "AD", "name": "LE TOUQUET COTE D'OPALE", "codeId": "LFAT", "codeIcao": "LFAT", "codeIata": "LTQ", "elevation": "21", "verticalUnit": "FT", "descriptionSite": "2.9 km ESE Le Touquet", "cityServing": "LE TOUQUET", "nameAdmin": "SOCIETE D'ECONOMIE MIXTE DE L'AEROPORT DU TOUQUET"}, "geometry": {"type": "Point", "coordinates": [1.627578, 50.514847]}}, {"type": "Feature", "properties": {"zoneType": "Aerodrome / Heliport", "organisationAuthority": "FRANCE", "codeType": "AD", "name": "ANNEMASSE", "codeId": "LFLI", "codeIcao": "LFLI", "codeIata": "QNJ", "elevation": "1620", "verticalUnit": "FT", "cityServing": "ANNEMASSE"}, "geometry": {"type": "Point", "coordinates": [6.268333, 46.191944]}}, {"type": "Feature", "properties": {"zoneType": "Aerodrome / Heliport", "organisationAuthority": "FRANCE", "codeType": "HP", "name": "VILLEFRANCHE HOPITAL NORD OUEST", "codeId": "LFH226", "elevation": "765", "verticalUnit": "FT"}, "geometry": {"type": "Point", "coordinates": [4.693189, 46.005536]}}, {"type": "Feature", "properties": {"zoneType": "Aerodrome / Heliport", "organisationAuthority": "FRANCE", "codeType": "HP", "name": "SAINT OMER CENTRE HOSPITALIER", "codeId": "LFH272", "elevation": "276", "verticalUnit": "FT"}, "geometry": {"type": "Point", "coordinates": [2.254806, 50.703583]}}, {"type": "Feature", "properties": {"zoneType": "Aerodrome / Heliport", "organisationAuthority": "FRANCE", "codeType": "AD", "name": "SAUMUR SAINT FLORENT", "codeId": "LFOD", "codeIcao": "LFOD", "codeIata": "XSU", "elevation": "269", "verticalUnit": "FT", "cityServing": "SAUMUR"}, "geometry": {"type": "Point", "coordinates": [-0.113553, 47.256731]}}, {"type": "Feature", "properties": {"zoneType": "Aerodrome / Heliport", "organisationAuthority": "FRANCE", "codeType": "HP", "name": "CLERMONT FERRAND SAINT JACQUES", "codeId": "LFH427", "elevation": "1366", "verticalUnit": "FT"}, "geometry": {"type": "Point", "coordinates": [3.091861, 45.756983]}}, {"type": "Feature", "properties": {"zoneType": "Aerodrome / Heliport", "organisationAuthority": "FRANCE", "codeType": "AD", "name": "CHARTRES METROPOLE", "codeId": "LFOR", "codeIcao": "LFOR", "codeIata": "QTJ", "elevation": "509", "verticalUnit": "FT", "cityServing": "CHARTRES"}, "geometry": {"type": "Point", "coordinates": [1.523889, 48.458889]}}, {"type": "Feature", "properties": {"zoneType": "Aerodrome / Heliport", "organisationAuthority": "NOUVELLE CALEDONIE", "codeType": "AD", "name": "POUM MALABOU", "codeId": "NWWP", "codeIcao": "NWWP", "elevation": "10", "verticalUnit": "FT", "descriptionSite": "15 km SE Poum", "nameAdmin": "MALABOU BEACH HOTEL"}, "geometry": {"type": "Point", "coordinates": [164.099444, -20.289167]}}, {"type": "Feature", "properties": {"zoneType": "Aerodrome / Heliport", "organisationAuthority": "FRANCE", "codeType": "AD", "name": "DREUX VERNOUILLET", "codeId": "LFON", "codeIcao": "LFON", "codeIata": "XDR", "elevation": "445", "verticalUnit": "FT", "cityServing": "DREUX"}, "geometry": {"type": "Point", "coordinates": [1.361389, 48.705833]}}, {"type": "Feature", "properties": {"zoneType": "Aerodrome / Heliport", "organisationAuthority": "FRANCE", "codeType": "HP", "name": "MARSEILLE LAVERAN HOPITAL MILITAIRE", "codeId": "LFH39", "elevation": "353", "verticalUnit": "FT"}, "geometry": {"type": "Point", "coordinates": [5.415556, 43.327778]}}, {"type": "Feature", "properties": {"zoneType": "Aerodrome / Heliport", "organisationAuthority": "FRANCE", "codeType": "AD", "name": "LOGNES EMERAINVILLE", "codeId": "LFPL", "codeIcao": "LFPL", "codeIata": "XLG", "elevation": "359", "verticalUnit": "FT", "cityServing": "LOGNES, PARIS"}, "geometry": {"type": "Point", "coordinates": [2.622778, 48.821944]}}, {"type": "Feature", "properties": {"zoneType": "Aerodrome / Heliport", "organisationAuthority": "FRANCE", "codeType": "AD", "name": "AGEN LA GARENNE", "codeId": "LFBA", "codeIcao": "LFBA", "codeIata": "AGF", "elevation": "204", "verticalUnit": "FT", "descriptionSite": "3 km SW Agen", "cityServing": "AGEN", "nameAdmin": "SMAD"}, "geometry": {"type": "Point", "coordinates": [0.590619, 44.174714]}}, {"type": "Feature", "properties": {"zoneType": "Aerodrome / Heliport", "organisationAuthority": "FRANCE", "codeType": "HP", "name": "KREMLIN BICETRE CENTRE HOSPITALIER", "codeId": "LFH442", "elevation": "270", "verticalUnit": "FT"}, "geometry": {"type": "Point", "coordinates": [2.356111, 48.809444]}}, {"type": "Feature", "properties": {"zoneType": "Aerodrome / Heliport", "organisationAuthority": "FRANCE", "codeType": "AD", "name": "CHALONS VATRY", "codeId": "LFOK", "codeIcao": "LFOK", "codeIata": "XCR", "elevation": "586", "verticalUnit": "FT", "description": "Intersection RWY et TWY A4.\\\\RWY and TWY A4 intersection.", "descriptionSite": "SW CHALONS EN CHAMPAGNE 22 km.", "cityServing": "CHALONS-EN-CHAMPAGNE, PARIS", "nameAdmin": "EPIC-EPGAV"}, "geometry": {"type": "Point", "coordinates": [4.206156, 48.773325]}}, {"type": "Feature", "properties": {"zoneType": "Aerodrome / Heliport", "organisationAuthority": "FRANCE", "codeType": "AD", "name": "CHATEAU THIERRY BELLEAU", "codeId": "LFFH", "codeIcao": "LFFH", "codeIata": "XCY", "elevation": "723", "verticalUnit": "FT"}, "geometry": {"type": "Point", "coordinates": [3.355556, 49.066667]}}, {"type": "Feature", "properties": {"zoneType": "Aerodrome / Heliport", "organisationAuthority": "FRANCE", "codeType": "AD", "name": "SAINT QUENTIN ROUPY", "codeId": "LFOW", "codeIcao": "LFOW", "elevation": "325", "verticalUnit": "FT", "cityServing": "SAINT QUENTIN"}, "geometry": {"type": "Point", "coordinates": [3.206667, 49.816944]}}, {"type": "Feature", "properties": {"zoneType": "Aerodrome / Heliport", "organisationAuthority": "FRANCE", "codeType": "HP", "name": "LONS LE SAUNIER CENTRE HOSPITALIER", "codeId": "LFH387", "elevation": "896", "verticalUnit": "FT"}, "geometry": {"type": "Point", "coordinates": [5.55, 46.676111]}}, {"type": "Feature", "properties": {"zoneType": "Aerodrome / Heliport", "organisationAuthority": "FRANCE", "codeType": "HP", "name": "VANNES - CENTRE HOSPITALIER BRETAGNE ATLANTIQUE.", "codeId": "LFH222", "elevation": "33", "verticalUnit": "FT"}, "geometry": {"type": "Point", "coordinates": [-2.747222, 47.663889]}}, {"type": "Feature", "properties": {"zoneType": "Aerodrome / Heliport", "organisationAuthority": "FRANCE", "codeType": "AD", "name": "BERCK SUR MER", "codeId": "LFAM", "codeIcao": "LFAM", "elevation": "32", "verticalUnit": "FT", "cityServing": "BERCK"}, "geometry": {"type": "Point", "coordinates": [1.591944, 50.423056]}}, {"type": "Feature", "properties": {"zoneType": "Aerodrome / Heliport", "organisationAuthority": "FRANCE", "codeType": "AD", "name": "SOISSONS COURMELLES", "codeId": "LFJS", "codeIcao": "LFJS", "codeIata": "XSS", "elevation": "518", "verticalUnit": "FT", "cityServing": "SOISSONS"}, "geometry": {"type": "Point", "coordinates": [3.283056, 49.345]}}, {"type": "Feature", "properties": {"zoneType": "Aerodrome / Heliport", "organisationAuthority": "FRANCE", "codeType": "AD", "name": "ENGHIEN MOISSELLES", "codeId": "LFFE", "codeIcao": "LFFE", "elevation": "337", "verticalUnit": "FT"}, "geometry": {"type": "Point", "coordinates": [2.351944, 49.045556]}}, {"type": "Feature", "properties": {"zoneType": "Aerodrome / Heliport", "organisationAuthority": "FRANCE", "codeType": "HP", "name": "DAX CENTRE HOSPITALIER", "codeId": "LFH78", "elevation": "31", "verticalUnit": "FT"}, "geometry": {"type": "Point", "coordinates": [-1.040278, 43.7125]}}, {"type": "Feature", "properties": {"zoneType": "Aerodrome / Heliport", "organisationAuthority": "FRANCE", "codeType": "AD", "name": "JOINVILLE MUSSEY", "codeId": "LFFJ", "codeIcao": "LFFJ", "elevation": "1030", "verticalUnit": "FT"}, "geometry": {"type": "Point", "coordinates": [5.143333, 48.385278]}}, {"type": "Feature", "properties": {"zoneType": "Aerodrome / Heliport", "organisationAuthority": "FRANCE", "codeType": "HP", "name": "GUERET CENTRE HOSPITALIER", "codeId": "LFH399", "elevation": "1752", "verticalUnit": "FT"}, "geometry": {"type": "Point", "coordinates": [1.868667, 46.161556]}}, {"type": "Feature", "properties": {"zoneType": "Aerodrome / Heliport", "organisationAuthority": "FRANCE", "codeType": "HP", "name": "PARAY LE MONIAL CENTRE HOSPITALIER", "codeId": "LFH293", "elevation": "824", "verticalUnit": "FT"}, "geometry": {"type": "Point", "coordinates": [4.109722, 46.465]}}, {"type": "Feature", "properties": {"zoneType": "Aerodrome / Heliport", "organisationAuthority": "FRANCE", "codeType": "AD", "name": "LE PUY LOUDES", "codeId": "LFHP", "codeIcao": "LFHP", "codeIata": "LPY", "elevation": "2731", "verticalUnit": "FT", "descriptionSite": "10 km WNW Le Puy", "cityServing": "LE PUY", "nameAdmin": "SYNDICAT MIXTE DE GESTION AERODROME DEPARTEMENTAL"}, "geometry": {"type": "Point", "coordinates": [3.763442, 45.079656]}}, {"type": "Feature", "properties": {"zoneType": "Aerodrome / Heliport", "organisationAuthority": "FRANCE", "codeType": "AD", "name": "MEAUX ESBLY", "codeId": "LFPE", "codeIcao": "LFPE", "elevation": "220", "verticalUnit": "FT", "cityServing": "MEAUX"}, "geometry": {"type": "Point", "coordinates": [2.833889, 48.926944]}}, {"type": "Feature", "properties": {"zoneType": "Aerodrome / Heliport", "organisationAuthority": "FRANCE", "codeType": "AD", "name": "AMIENS-GLISY", "codeId": "LFAY", "codeIcao": "LFAY", "codeIata": "QAM", "elevation": "208", "verticalUnit": "FT", "description": "Milieu piste 12/30 \\\\Middle RWY 12/30", "descriptionSite": "7 km ESE Amiens", "cityServing": "AMIENS", "nameAdmin": "COMMUNAUTE D'AGGLOMERATION D'AMIENS METROPOLE"}, "geometry": {"type": "Point", "coordinates": [2.386986, 49.873103]}}, {"type": "Feature", "properties": {"zoneType": "Aerodrome / Heliport", "organisationAuthority": "FRANCE", "codeType": "AD", "name": "CHERBOURG MAUPERTUS", "codeId": "LFRC", "codeIcao": "LFRC", "codeIata": "CER", "elevation": "459", "verticalUnit": "FT", "description": "intersection axes de piste principale et voie de circulation\\\\Main RWY and TWY centre lines intersection", "descriptionSite": "11 km Est de CHERBOURG\\\\11 km East from CHERBOURG", "cityServing": "CHERBOURG", "nameAdmin": "EDEIS AEROPORT DE CHERBOURG"}, "geometry": {"type": "Point", "coordinates": [-1.4753, 49.650775]}}, {"type": "Feature", "properties": {"zoneType": "Aerodrome / Heliport", "organisationAuthority": "FRANCE", "codeType": "HP", "name": "OLORON SAINTE MARIE CENTRE HOSPITALIER", "codeId": "LFH344", "elevation": "758", "verticalUnit": "FT"}, "geometry": {"type": "Point", "coordinates": [-0.617778, 43.195833]}}, {"type": "Feature", "properties": {"zoneType": "Aerodrome / Heliport", "organisationAuthority": "FRANCE", "codeType": "AD", "name": "NANCY AZELOT", "codeId": "LFEX", "codeIcao": "LFEX", "elevation": "958", "verticalUnit": "FT"}, "geometry": {"type": "Point", "coordinates": [6.239722, 48.591944]}}, {"type": "Feature", "properties": {"zoneType": "Aerodrome / Heliport", "organisationAuthority": "FRANCE", "codeType": "AD", "name": "BOURGES", "codeId": "LFLD", "codeIcao": "LFLD", "codeIata": "BOU", "elevation": "529", "verticalUnit": "FT", "description": "Intersection RWY et TWY C", "descriptionSite": "3 km SW Bourges", "cityServing": "BOURGES", "nameAdmin": "EDEIS AEROPORT BOURGES"}, "geometry": {"type": "Point", "coordinates": [2.370083, 47.060786]}}, {"type": "Feature", "properties": {"zoneType": "Aerodrome / Heliport", "organisationAuthority": "FRANCE", "codeType": "AD", "name": "ANGERS MARCE", "codeId": "LFJR", "codeIcao": "LFJR", "codeIata": "ANE", "elevation": "194", "verticalUnit": "FT", "description": "Intersection axes RWY et TWY B\\\\RWY and TWY B intersection", "descriptionSite": "20 Km NNE ANGERS(49-MAINE ET LOIRE)", "cityServing": "ANGERS", "nameAdmin": "EDEIS AEROPORT ANGERS"}, "geometry": {"type": "Point", "coordinates": [-0.312128, 47.560211]}}, {"type": "Feature", "properties": {"zoneType": "Aerodrome / Heliport", "organisationAuthority": "FRANCE", "codeType": "HP", "name": "ILE D'YEU PORT JOINVILLE", "codeId": "LFH108", "elevation": "10", "verticalUnit": "FT"}, "geometry": {"type": "Point", "coordinates": [-2.351111, 46.728333]}}, {"type": "Feature", "properties": {"zoneType": "Aerodrome / Heliport", "organisationAuthority": "FRANCE", "codeType": "AD", "name": "ARRAS ROCLINCOURT", "codeId": "LFQD", "codeIcao": "LFQD", "codeIata": "QRV", "elevation": "328", "verticalUnit": "FT", "cityServing": "ARRAS"}, "geometry": {"type": "Point", "coordinates": [2.802778, 50.323889]}}, {"type": "Feature", "properties": {"zoneType": "Aerodrome / Heliport", "organisationAuthority": "FRANCE", "codeType": "AD", "name": "SARREGUEMINES NEUNKIRCH", "codeId": "LFGU", "codeIcao": "LFGU", "elevation": "863", "verticalUnit": "FT", "cityServing": "SARREGUEMINES"}, "geometry": {"type": "Point", "coordinates": [7.106667, 49.1275]}}, {"type": "Feature", "properties": {"zoneType": "Aerodrome / Heliport", "organisationAuthority": "FRANCE", "codeType": "AD", "name": "FIGEAC LIVERNON", "codeId": "LFCF", "codeIcao": "LFCF", "elevation": "1085", "verticalUnit": "FT", "cityServing": "FIGEAC"}, "geometry": {"type": "Point", "coordinates": [1.788056, 44.6725]}}, {"type": "Feature", "properties": {"zoneType": "Aerodrome / Heliport", "organisationAuthority": "FRANCE", "codeType": "AD", "name": "VILLEFRANCHE DE ROUERGUE", "codeId": "LFCV", "codeIcao": "LFCV", "elevation": "1104", "verticalUnit": "FT", "cityServing": "VILLEFRANCHE DE ROUERGUE"}, "geometry": {"type": "Point", "coordinates": [2.026944, 44.368889]}}, {"type": "Feature", "properties": {"zoneType": "Aerodrome / Heliport", "organisationAuthority": "FRANCE", "codeType": "HP", "name": "NIMES CAREMEAU CENTRE HOSPITALIER", "codeId": "LFH391", "elevation": "310", "verticalUnit": "FT"}, "geometry": {"type": "Point", "coordinates": [4.323056, 43.823889]}}, {"type": "Feature", "properties": {"zoneType": "Aerodrome / Heliport", "organisationAuthority": "FRANCE", "codeType": "AD", "name": "PLOERMEL LOYAT", "codeId": "LFRP", "codeIcao": "LFRP", "elevation": "237", "verticalUnit": "FT", "cityServing": "PLOERMEL"}, "geometry": {"type": "Point", "coordinates": [-2.378719, 48.001856]}}, {"type": "Feature", "properties": {"zoneType": "Aerodrome / Heliport", "organisationAuthority": "FRANCE", "codeType": "AD", "name": "SAINT OMER WIZERNES", "codeId": "LFQN", "codeIcao": "LFQN", "codeIata": "XSG", "elevation": "249", "verticalUnit": "FT", "cityServing": "SAINT-OMER"}, "geometry": {"type": "Point", "coordinates": [2.234444, 50.728889]}}, {"type": "Feature", "properties": {"zoneType": "Aerodrome / Heliport", "organisationAuthority": "FRANCE", "codeType": "AD", "name": "MERVILLE CALONNE", "codeId": "LFQT", "codeIcao": "LFQT", "codeIata": "HZB", "elevation": "61", "verticalUnit": "FT", "description": "Intersection RWY et TWY B2", "descriptionSite": "3 km S Merville", "cityServing": "MERVILLE", "nameAdmin": "CCI HAUTS-DE-FRANCE"}, "geometry": {"type": "Point", "coordinates": [2.640094, 50.6166]}}, {"type": "Feature", "properties": {"zoneType": "Aerodrome / Heliport", "organisationAuthority": "FRANCE", "codeType": "HP", "name": "SAINT POL SUR TERNOISE POLYCLINIQUE DU TERNOIS", "codeId": "LFH359", "elevation": "417", "verticalUnit": "FT"}, "geometry": {"type": "Point", "coordinates": [2.335556, 50.387778]}}, {"type": "Feature", "properties": {"zoneType": "Aerodrome / Heliport", "organisationAuthority": "POLYNESIE FRANCAISE", "codeType": "HP", "name": "TARAVAO CHT", "codeId": "NTHV", "codeIcao": "NTHV", "elevation": "101", "verticalUnit": "FT"}, "geometry": {"type": "Point", "coordinates": [-149.304444, -17.732778]}}, {"type": "Feature", "properties": {"zoneType": "Aerodrome / Heliport", "organisationAuthority": "POLYNESIE FRANCAISE", "codeType": "HP", "name": "PIRAE CHPF", "codeId": "NTHP", "codeIcao": "NTHP", "elevation": "96", "verticalUnit": "FT"}, "geometry": {"type": "Point", "coordinates": [-149.546389, -17.528056]}}, {"type": "Feature", "properties": {"zoneType": "Aerodrome / Heliport", "organisationAuthority": "POLYNESIE FRANCAISE", "codeType": "HP", "name": "AFAREAITU CHT", "codeId": "NTHF", "codeIcao": "NTHF", "elevation": "5", "verticalUnit": "FT"}, "geometry": {"type": "Point", "coordinates": [-149.79, -17.550278]}}, {"type": "Feature", "properties": {"zoneType": "Aerodrome / Heliport", "organisationAuthority": "FRANCE", "codeType": "AD", "name": "ETAMPES MONDESIR", "codeId": "LFOX", "codeIcao": "LFOX", "elevation": "494", "verticalUnit": "FT", "cityServing": "ETAMPES"}, "geometry": {"type": "Point", "coordinates": [2.073889, 48.381111]}}, {"type": "Feature", "properties": {"zoneType": "Aerodrome / Heliport", "organisationAuthority": "FRANCE", "codeType": "AD", "name": "CHAVENAY VILLEPREUX", "codeId": "LFPX", "codeIcao": "LFPX", "elevation": "424", "verticalUnit": "FT", "cityServing": "CHAVENAY, PARIS"}, "geometry": {"type": "Point", "coordinates": [1.980278, 48.842222]}}, {"type": "Feature", "properties": {"zoneType": "Aerodrome / Heliport", "organisationAuthority": "FRANCE", "codeType": "AD", "name": "ARCACHON LA TESTE DE BUCH", "codeId": "LFCH", "codeIcao": "LFCH", "codeIata": "XAC", "elevation": "52", "verticalUnit": "FT", "cityServing": "ARCACHON"}, "geometry": {"type": "Point", "coordinates": [-1.113889, 44.596944]}}, {"type": "Feature", "properties": {"zoneType": "Aerodrome / Heliport", "organisationAuthority": "FRANCE", "codeType": "AD", "name": "ROANNE", "codeId": "LFLO", "codeIcao": "LFLO", "codeIata": "RNE", "elevation": "1106", "verticalUnit": "FT", "description": "Intersection RWY et TWY A", "descriptionSite": "7 km WNW Roanne", "cityServing": "ROANNE", "nameAdmin": "ROANNAIS AGGLOMERATION"}, "geometry": {"type": "Point", "coordinates": [3.999722, 46.052778]}}, {"type": "Feature", "properties": {"zoneType": "Aerodrome / Heliport", "organisationAuthority": "FRANCE", "codeType": "AD", "name": "MOULINS MONTBEUGNY", "codeId": "LFHY", "codeIcao": "LFHY", "codeIata": "XMU", "elevation": "915", "verticalUnit": "FT", "descriptionSite": "7 km SE Moulins", "cityServing": "MOULINS", "nameAdmin": "CCI DE MOULINS-VICHY"}, "geometry": {"type": "Point", "coordinates": [3.421606, 46.534383]}}, {"type": "Feature", "properties": {"zoneType": "Aerodrome / Heliport", "organisationAuthority": "FRANCE", "codeType": "AD", "name": "CHAMBLEY", "codeId": "LFJY", "codeIcao": "LFJY", "elevation": "866", "verticalUnit": "FT", "descriptionSite": "3 km SW Chambley-Bussières", "cityServing": "CHAMBLEY", "nameAdmin": "REGION GRAND EST"}, "geometry": {"type": "Point", "coordinates": [5.876092, 49.025469]}}, {"type": "Feature", "properties": {"zoneType": "Aerodrome / Heliport", "organisationAuthority": "FRANCE", "codeType": "HP", "name": "PARIS CENTRE HOSPITALIER LARIBOISIERE", "codeId": "LFH347", "elevation": "262", "verticalUnit": "FT"}, "geometry": {"type": "Point", "coordinates": [2.354428, 48.882639]}},